fid,MDI_IDENT,STATUS_ID,STATUS,NAME,All_NAMES,DEP_CLASS,P_COMMOD,S_COMMOD,RGP_DIST,TWP_AREA,LL_DATUM,LATITUDE,LONGITUDE,DETAIL,potentiel
6,MDI31F06SW00060,1008,Prospect,A. Dubblestein Graphite Property,"A. Dubblestein Graphite Property, Little-Bryan Occurrence, Lyndoch Property","Industrial, Metamorphic",Graphite,"Cobalt, Copper, Dolomite (Flux/Filler), Nickel",Southern Ontario,Lyndoch,NAD83,45.266601000000001,-77.311813999999998,https://www.geologyontario.mines.gov.on.ca/persistent-linking?mineral-inventory=MDI31F06SW00060,Faible
8,MDI41I10SW00004,1005,Past Producing Mine,Falconbridge,Falconbridge,,"Copper, Nickel","Cobalt, Gold, Iridium, Iron, Palladium, Platinum, Rhodium, Ruthenium, Selenium, Silver",Sudbury,Falconbridge,NAD83,46.581032000000000,-80.799851000000004,https://www.geologyontario.mines.gov.on.ca/persistent-linking?mineral-inventory=MDI41I10SW00004,Très fort
13,MDI41P11SE00071,1004,Occurrence,Caswell-Eplett-Neelands,"Caswell-Eplett-Neelands, G.J. Mullen",,"Cobalt, Copper, Nickel, Silver",,Kirkland Lake,Leonard,NAD83,47.534016000000001,-81.029317000000006,https://www.geologyontario.mines.gov.on.ca/persistent-linking?mineral-inventory=MDI41P11SE00071,Fort
14,MDI42A09SW00188,1004,Occurrence,Mickle,"Amax of Canada Ltd., Canadian Johns-Manville Co. Ltd., International Nickel Co. Ltd., Mickle",,"Nickel, Palladium, Platinum",,Kirkland Lake,Munro,NAD83,48.577585999999997,-80.274867000000000,https://www.geologyontario.mines.gov.on.ca/persistent-linking?mineral-inventory=MDI42A09SW00188,Fort
16,MDI52F05SE00071,1008,Prospect,H.A. Bergman,"H.A. Bergman, Isinglass Lake, R.V. Knappet",,"Copper, Nickel",Gold,Kenora,Rowan Lake Area,NAD83,49.357235000000003,-93.696306000000007,https://www.geologyontario.mines.gov.on.ca/persistent-linking?mineral-inventory=MDI52F05SE00071,Modéré
17,MDI41I10SW00060,1004,Occurrence,Sir Mortimer Davis,"Sir Mortimer Davis, Track-Davis",,"Copper, Nickel, Palladium, Platinum",,Sudbury,Garson,NAD83,46.569879999999998,-80.943889999999996,https://www.geologyontario.mines.gov.on.ca/persistent-linking?mineral-inventory=MDI41I10SW00060,Très fort
23,MDI42A14SW00032,1001,Deposit,Crawford Nickel Sulphide Project,"Anomaly 4-89, Crawford Nickel Main Zone, Crawford Nickel Sulphide Project, Inco 27095",Komatiite-hosted,Nickel,"Chromium, Cobalt, Copper, Gold, Magnesium Minerals, Platinum",Timmins,Crawford,NAD83,48.828614999999999,-81.358631000000003,https://www.geologyontario.mines.gov.on.ca/persistent-linking?mineral-inventory=MDI42A14SW00032,Fort
25,MDI31M05NE00115,1004,Occurrence,A. Seed,A. Seed,,Cobalt,Nickel,Kirkland Lake,Bucke,NAD83,47.433973000000002,-79.747938000000005,https://www.geologyontario.mines.gov.on.ca/persistent-linking?mineral-inventory=MDI31M05NE00115,Fort
28,MDI31C13SW00109,1003,Discretionary Occurrence,Macassa,Macassa,,"Copper, Nickel",,Southern Ontario,Wollaston,NAD83,44.837978000000000,-77.765623000000005,https://www.geologyontario.mines.gov.on.ca/persistent-linking?mineral-inventory=MDI31C13SW00109,Faible
29,MDI41I05SW00091,1004,Occurrence,Baldwin F,"Baldwin F, Prosco 16, Turpeinen Property",,Copper,"Cobalt, Gold, Nickel, Sulphur/Pyrite",Sudbury,Baldwin,NAD83,46.319910999999998,-81.795263000000006,https://www.geologyontario.mines.gov.on.ca/persistent-linking?mineral-inventory=MDI41I05SW00091,Très fort
30,MDI52B09NW00027,1004,Occurrence,H. Milkie,H. Milkie,,"Copper, Nickel","Gold, Silver",Thunder Bay South,Haines,NAD83,48.633270000000003,-90.339191000000000,https://www.geologyontario.mines.gov.on.ca/persistent-linking?mineral-inventory=MDI52B09NW00027,Intermédiaire
31,MDI42A09NE00004,1005,Past Producing Mine,Hedman,"Dyman, Hedman, Knight, Mangan-Dyer, Van Packer Mines of Canada Ltd.",,Serpentinite,"Asbestos, Cobalt, Copper, Nickel",Kirkland Lake,Warden,NAD83,48.625675999999999,-80.199252000000001,https://www.geologyontario.mines.gov.on.ca/persistent-linking?mineral-inventory=MDI42A09NE00004,Fort
33,MDI42A06SE00024,1004,Occurrence,J. Kennedy Property,"Claim T.R.P. 1566, J. Kennedy Property, Kennedy Occurrence, Kennedy-Croteau Property, M.M. Jones Property",,"Copper, Gold",Nickel,Timmins,Eldorado,NAD83,48.289740999999999,-81.086449000000002,https://www.geologyontario.mines.gov.on.ca/persistent-linking?mineral-inventory=MDI42A06SE00024,Fort
35,MDI41P08NW00002,1009,Past Producing Mine (Low Tonnage),White Reserve,White Reserve,,"Cobalt, Silver","Antimony, Bismuth, Copper, Gold, Nickel",Kirkland Lake,Whitson,NAD83,47.439664000000000,-80.279306000000005,https://www.geologyontario.mines.gov.on.ca/persistent-linking?mineral-inventory=MDI41P08NW00002,Fort
37,MDI42F04NE00010,1003,Discretionary Occurrence,Moshkinabi Lake Sulphides,"Aquarius Joint Venture Project 1191, Ian Lake Area Project No. 4034, Ice Cream Lake Occurrence, Manitouwadge Project, Moshkinabi Lake Sulphides",,"Copper, Nickel",,Thunder Bay South,Roberta,NAD83,49.128912000000000,-85.562763000000004,https://www.geologyontario.mines.gov.on.ca/persistent-linking?mineral-inventory=MDI42F04NE00010,Intermédiaire
40,MDI31M04SE00030,1004,Occurrence,Gosselin,"Aldage, Gosselin",,"Copper, Silver","Cobalt, Gold, Nickel",Kirkland Lake,Cassels,NAD83,47.089050999999998,-79.696832000000001,https://www.geologyontario.mines.gov.on.ca/persistent-linking?mineral-inventory=MDI31M04SE00030,Fort
41,MDI41I06NE00005,1007,Producing Mine,Creighton Mine,Creighton Mine,,"Copper, Nickel, Palladium, Platinum","Cobalt, Gold, Iron, Selenium, Silver, Sulphur/Pyrite, Tellurium",Sudbury,Snider,NAD83,46.460746000000000,-81.181697999999997,https://www.geologyontario.mines.gov.on.ca/persistent-linking?mineral-inventory=MDI41I06NE00005,Très fort
42,MDI52M01SE00184,1004,Occurrence,Bridget Lake #1,"Bridget Lake #1, Bridget Lake Copper Prospect, Cochenour Willans KRL 2023 Occurrence, Piper Red Lake Occurrence - KRL 2023",,"Copper, Silver","Gold, Nickel",Red Lake,Ball,NAD83,51.033478000000002,-94.217505000000003,https://www.geologyontario.mines.gov.on.ca/persistent-linking?mineral-inventory=MDI52M01SE00184,Modéré
46,MDI41I05SW00096,1004,Occurrence,Prosco No E13,"L-6, Prosco No E13, Turpeinen",,Sulphur/Pyrite,"Copper, Gold, Nickel",Sudbury,Baldwin,NAD83,46.313153000000000,-81.771488000000005,https://www.geologyontario.mines.gov.on.ca/persistent-linking?mineral-inventory=MDI41I05SW00096,Très fort
47,MDI52M01NE00010,1003,Discretionary Occurrence,Rowan Consolidated Occurrence,Rowan Consolidated Occurrence,,Gold,"Nickel, Silver",Red Lake,Ball,NAD83,51.050581999999999,-94.237200000000001,https://www.geologyontario.mines.gov.on.ca/persistent-linking?mineral-inventory=MDI52M01NE00010,Modéré
50,MDI41P11SE00074,1001,Deposit,Little Nickel Deposit,"Fort Knox Gold Resources Inc, Inco Ltd., Little Nickel Deposit, South Grid",,"Copper, Lead, Nickel, Zinc",Cobalt,Kirkland Lake,Fawcett,NAD83,47.559804000000000,-81.172421000000000,https://www.geologyontario.mines.gov.on.ca/persistent-linking?mineral-inventory=MDI41P11SE00074,Fort
51,MDI52M01NE00011,1003,Discretionary Occurrence,Albert Jerome Occurrence,"Albert Jerome Occurrence, Scott Gold Mining Syndicate Occurrence",,Gold,"Molybdenum, Nickel",Red Lake,Ball,NAD83,51.052964000000003,-94.233053999999996,https://www.geologyontario.mines.gov.on.ca/persistent-linking?mineral-inventory=MDI52M01NE00011,Modéré
53,MDI000000001385,1004,Occurrence,Rawson Island Showing,Rawson Island Showing,,Nickel,"Cobalt, Copper, Zinc",Timmins,Nursey,NAD83,47.856760999999999,-81.343147000000002,https://www.geologyontario.mines.gov.on.ca/persistent-linking?mineral-inventory=MDI000000001385,Fort
57,MDI52M01SE00183,1003,Discretionary Occurrence,West Narrows,"DDH 66-84, Trout Bay, West Narrows",,"Nickel, Vanadium","Copper, Titanium",Red Lake,Ball,NAD83,51.024709999999999,-94.186021999999994,https://www.geologyontario.mines.gov.on.ca/persistent-linking?mineral-inventory=MDI52M01SE00183,Modéré
61,MDI000000001386,1004,Occurrence,First Island Sample 1627,First Island Sample 1627,,Nickel,"Chromium, Cobalt, Copper, Gold, Zinc",Timmins,Nursey,NAD83,47.859079999999999,-81.338029000000006,https://www.geologyontario.mines.gov.on.ca/persistent-linking?mineral-inventory=MDI000000001386,Fort
62,MDI31M05SE00019,1005,Past Producing Mine,Lawson Mine,"Glen Lake Silver Mines Ltd., Hiho Silver Mines Ltd., La Rose Mines Ltd., La Rose-Rouyn Mines Ltd., Lawson Mine, Silver-Miller Mines Ltd.",Vein (Cobalt-Type),"Cobalt, Silver","Copper, Lead, Nickel, Zinc",Kirkland Lake,Coleman,NAD83,47.374094999999997,-79.660560000000004,https://www.geologyontario.mines.gov.on.ca/persistent-linking?mineral-inventory=MDI31M05SE00019,Fort
63,MDI42A10NE00082,1004,Occurrence,Hucamp Mines DDH HUF1-01,Hucamp Mines DDH HUF1-01,,"Cobalt, Nickel","Palladium, Platinum",Timmins,Dundonald,NAD83,48.648957000000003,-80.821360999999996,https://www.geologyontario.mines.gov.on.ca/persistent-linking?mineral-inventory=MDI42A10NE00082,Fort
69,MDI41P09SE00011,1004,Occurrence,William Moore,William Moore,,Silver,"Cobalt, Copper, Nickel",Kirkland Lake,Speight,NAD83,47.568069999999999,-80.207862000000006,https://www.geologyontario.mines.gov.on.ca/persistent-linking?mineral-inventory=MDI41P09SE00011,Fort
72,MDI42A16SW00044,1004,Occurrence,Mistango - West,Mistango - West,,Nickel,Chromium,Kirkland Lake,Moody,NAD83,48.839621000000001,-80.314732000000006,https://www.geologyontario.mines.gov.on.ca/persistent-linking?mineral-inventory=MDI42A16SW00044,Fort
73,MDI41I09NW00016,1003,Discretionary Occurrence,Larabee,Larabee,,"Copper, Nickel","Palladium, Platinum",Sudbury,Davis,NAD83,46.675293000000003,-80.458360999999996,https://www.geologyontario.mines.gov.on.ca/persistent-linking?mineral-inventory=MDI41I09NW00016,Très fort
74,MDI31M05SE00129,1009,Past Producing Mine (Low Tonnage),"Hector Silver Mines, Block 4","Claim C1243, Gillies Limit Block 4, Hector Silver Mines, Block 4, W. Gutzman Property",Vein (Cobalt-Type),Silver,"Bismuth, Cobalt, Nickel",Kirkland Lake,Gillies Limit,NAD83,47.351798000000002,-79.722945999999993,https://www.geologyontario.mines.gov.on.ca/persistent-linking?mineral-inventory=MDI31M05SE00129,Fort
75,MDI31M05SE00126,1004,Occurrence,Cordon Cobalt Mines Ltd. (SW part),"Conroy McAndrew, Cordon Cobalt Mines Ltd. (SW part), J.J. McAndrew",Vein (Cobalt-Type),"Cobalt, Silver","Copper, Nickel",Kirkland Lake,Gillies Limit,NAD83,47.351174000000000,-79.677047000000002,https://www.geologyontario.mines.gov.on.ca/persistent-linking?mineral-inventory=MDI31M05SE00126,Fort
77,MDI000000001089,1004,Occurrence,Chapman Ni-Cu Occurrence,"Chapman Ni-Cu Occurrence, Firesteel, Pyramid",,"Copper, Nickel",,Thunder Bay South,Hanniwell,NAD83,49.057290000000002,-90.890940999999998,https://www.geologyontario.mines.gov.on.ca/persistent-linking?mineral-inventory=MDI000000001089,Intermédiaire
78,MDI42A07SW00019,1004,Occurrence,Bishop Claim,"Bishop Claim, Noranda DDH 72-8, Patented Claim P6451, S. M. Hynes Property",,Nickel,,Timmins,Langmuir,NAD83,48.341596000000003,-80.996388999999994,https://www.geologyontario.mines.gov.on.ca/persistent-linking?mineral-inventory=MDI42A07SW00019,Fort
80,MDI52E09SW00030,1004,Occurrence,Ellard,Ellard,,"Copper, Zinc",Nickel,Kenora,Manross,NAD83,49.573898000000000,-94.314099999999996,https://www.geologyontario.mines.gov.on.ca/persistent-linking?mineral-inventory=MDI52E09SW00030,Modéré
82,MDI41I05SE00061,1004,Occurrence,Andrews,"Andrews, Piispanen","Mafic-Ultramafic Intrusion, Magmatic, Vein","Copper, Nickel","Gold, Sulphur/Pyrite",Sudbury,Baldwin,NAD83,46.294026000000002,-81.710898999999998,https://www.geologyontario.mines.gov.on.ca/persistent-linking?mineral-inventory=MDI41I05SE00061,Très fort
83,MDI000000001147,1004,Occurrence,Wakinoo Lake,Wakinoo Lake,,"Copper, Nickel","Gold, Palladium, Platinum",Thunder Bay South,Orbit Lake Area,NAD83,48.989299000000003,-89.799143000000001,https://www.geologyontario.mines.gov.on.ca/persistent-linking?mineral-inventory=MDI000000001147,Intermédiaire
88,MDI41I10SE00031,1004,Occurrence,Mackenzie,Mackenzie,,Gold,"Copper, Nickel",Sudbury,Falconbridge,NAD83,46.579031000000001,-80.716851000000005,https://www.geologyontario.mines.gov.on.ca/persistent-linking?mineral-inventory=MDI41I10SE00031,Très fort
89,MDI41P10NE00044,1004,Occurrence,M. Shulman,"Lake Superior Resources Corp., M. Shulman",,"Copper, Nickel, Silver","Bismuth, Cobalt",Kirkland Lake,Nicol,NAD83,47.645377000000003,-80.725877999999994,https://www.geologyontario.mines.gov.on.ca/persistent-linking?mineral-inventory=MDI41P10NE00044,Fort
90,MDI000000001288,1001,Deposit,Midlothian Nickel,"Laurion DDH LM08-01, Midlothian Nickel",Mafic-Ultramafic Intrusion,Nickel,"Chromium, Cobalt, Iron, Palladium, Platinum, Sulphur/Pyrite",Kirkland Lake,Midlothian,NAD83,47.880153999999997,-81.005483999999996,https://www.geologyontario.mines.gov.on.ca/persistent-linking?mineral-inventory=MDI000000001288,Fort
94,MDI41I09SE00008,1003,Discretionary Occurrence,Crerar Occurrence F,Crerar Occurrence F,,"Copper, Nickel",,Sudbury,Crerar,NAD83,46.607564000000004,-80.229960000000005,https://www.geologyontario.mines.gov.on.ca/persistent-linking?mineral-inventory=MDI41I09SE00008,Très fort
95,MDI42A06SE00023,1004,Occurrence,Timmins Nickel Ovb DDH Rr-91-08,"R. J. Draper Property, Timmins Nickel Ovb DDH Rr-91-08, Utah Mines DDH R-8",,Nickel,"Copper, Iron, Silver",Timmins,Eldorado,NAD83,48.317095000000002,-81.164595000000006,https://www.geologyontario.mines.gov.on.ca/persistent-linking?mineral-inventory=MDI42A06SE00023,Fort
96,MDI000000002168,1004,Occurrence,Jh-99-465,Jh-99-465,Mafic-Ultramafic Intrusion,"Gold, Palladium, Platinum","Copper, Nickel",Thunder Bay South,Lac Des Iles Area,NAD83,49.230604999999997,-89.595967000000002,https://www.geologyontario.mines.gov.on.ca/persistent-linking?mineral-inventory=MDI000000002168,Intermédiaire
100,MDI41I05SE00041,1004,Occurrence,Owen Prospect,"Lorne Station, Owen Prospect","Dimension Stone, Hydrothermal, Vein","Copper, Granite, Nickel",,Sudbury,Baldwin,NAD83,46.285820999999999,-81.691096999999999,https://www.geologyontario.mines.gov.on.ca/persistent-linking?mineral-inventory=MDI41I05SE00041,Très fort
109,MDI41P01NE00007,1008,Prospect,Coppersand Lake Property,"A. Hardie Property, Coppersand Lake Property, Derosier Property, Hardie Prospect",Vein,"Copper, Gold, Lead, Silver","Cobalt, Nickel",Kirkland Lake,Cynthia,NAD83,47.141480000000001,-80.068940999999995,https://www.geologyontario.mines.gov.on.ca/persistent-linking?mineral-inventory=MDI41P01NE00007,Fort
112,MDI41J11SW00055,1008,Prospect,Sopha-Miller Gold Mines Ltd.,"A. Helfrick Property, Barry Property, Kerr Claim, Sopha-Miller Gold Mines Ltd.",Vein,"Bismuth, Cobalt, Copper, Nickel, Silver",Gold,Sault Ste. Marie,Otter,NAD83,46.577528000000001,-83.463395000000006,https://www.geologyontario.mines.gov.on.ca/persistent-linking?mineral-inventory=MDI41J11SW00055,Faible
117,MDI41I10SW00039,1005,Past Producing Mine,Thayer-Lindsley Mine,"Lindsley Mine, Lindsley Property, Thayer-Lindsley Mine",Mafic-Ultramafic Intrusion,"Copper, Nickel, Palladium, Platinum","Cobalt, Gold, Silver",Sudbury,Blezard,NAD83,46.561031000000000,-80.991872000000001,https://www.geologyontario.mines.gov.on.ca/persistent-linking?mineral-inventory=MDI41I10SW00039,Très fort
121,MDI31M05SE00093,1008,Prospect,Goodwin Lake Shaft,"Crown Reserve Mining Company Ltd., Goodwin Lake Shaft, R.D. Negus (Goodwin Lake Silver-Cobalt Deposit)",,Silver,"Copper, Nickel",Kirkland Lake,Lorrain,NAD83,47.320551000000002,-79.594721000000007,https://www.geologyontario.mines.gov.on.ca/persistent-linking?mineral-inventory=MDI31M05SE00093,Fort
122,MDI41I15NW00018,1004,Occurrence,Wanapitei River Copper,"Barry Towers Property, Fralick Township SE, G. Reid, Wanapitei River Copper",Mafic-Ultramafic Intrusion,"Copper, Gold","Nickel, Zinc",Sudbury,Fraleck,NAD83,46.910814999999999,-80.838468000000006,https://www.geologyontario.mines.gov.on.ca/persistent-linking?mineral-inventory=MDI41I15NW00018,Très fort
125,MDI41O10NW00039,1004,Occurrence,Granges Zone #2,Granges Zone #2,"Exhalative, Volcanogenic",Nickel,Copper,Timmins,Tooms,NAD83,47.716023999999997,-82.888028000000006,https://www.geologyontario.mines.gov.on.ca/persistent-linking?mineral-inventory=MDI41O10NW00039,Fort
128,MDI42A06SE00006,1005,Past Producing Mine,Langmuir #2,"Langmuir #2, Langmuir Deposit, Langmuir Mine, Langmuir North, Noranda Langmuir 1-64 Group, R. Lasalle Group, Shoniwigwam Group",Komatiite-hosted,Nickel,"Chromium, Copper, Gold, Silver",Timmins,Langmuir,NAD83,48.341493999999997,-81.001862000000003,https://www.geologyontario.mines.gov.on.ca/persistent-linking?mineral-inventory=MDI42A06SE00006,Fort
129,MDI41O10NW00041,1008,Prospect,Tooms DDH-Tns6,"Tooms DDH-Tns6, Tooms Nickel Syndicate DDH T6",Magmatic,Nickel,Copper,Timmins,Tooms,NAD83,47.718308000000000,-82.863844999999998,https://www.geologyontario.mines.gov.on.ca/persistent-linking?mineral-inventory=MDI41O10NW00041,Fort
132,MDI52P02NW00004,1004,Occurrence,Leitch Cu-Ni,"Leitch Cu-Ni, Linsey Bay, Linsey Bay Occurrence, Neil Smith Option, Shabuskwia Lake",Mafic-Ultramafic Intrusion,"Copper, Nickel",Cobalt,Thunder Bay North,Ficht Lake Area,NAD83,51.175058000000000,-88.941975999999997,https://www.geologyontario.mines.gov.on.ca/persistent-linking?mineral-inventory=MDI52P02NW00004,Intermédiaire
134,MDI000000000692,1004,Occurrence,Northern Shield DDH 07HB-04,"Highbank Lake Property, Northern Shield DDH 07HB-04",Mafic-Ultramafic Intrusion,"Copper, Nickel",Chromium,Thunder Bay North,BMA 523 861,NAD83,52.292310999999998,-86.236738000000003,https://www.geologyontario.mines.gov.on.ca/persistent-linking?mineral-inventory=MDI000000000692,Intermédiaire
135,MDI000000000478,1004,Occurrence,Pjv Bm04-05,"Northeast Tisdale Project, Pjv Bm04-05",,Gold,Nickel,Timmins,Tisdale,NAD83,48.531905000000002,-81.218055000000007,https://www.geologyontario.mines.gov.on.ca/persistent-linking?mineral-inventory=MDI000000000478,Fort
136,MDI42A04NW00043,1004,Occurrence,International Norvalie 2,"International Norvalie 2, International Norvalie DDH4",,Nickel,,Timmins,Kenogaming,NAD83,48.142260000000000,-81.909505999999993,https://www.geologyontario.mines.gov.on.ca/persistent-linking?mineral-inventory=MDI42A04NW00043,Fort
137,MDI42B01NE00050,1003,Discretionary Occurrence,South Hanrahan,"Crawford Lake, Hanrahan Lake, South Hanrahan",Replacement,Asbestos,Nickel,Timmins,Kenogaming,NAD83,48.146580000000000,-82.002143000000004,https://www.geologyontario.mines.gov.on.ca/persistent-linking?mineral-inventory=MDI42B01NE00050,Fort
139,MDI42B09NE00007,1005,Past Producing Mine,Montcalm Mine,"Dighem Syndicate Deposit, Montcalm Creek, Montcalm Deposit, Montcalm Mine, Outokumpu Mines","Mafic-Ultramafic Intrusion, Magmatic","Copper, Nickel",Cobalt,Timmins,Montcalm,NAD83,48.672257000000002,-82.101087000000007,https://www.geologyontario.mines.gov.on.ca/persistent-linking?mineral-inventory=MDI42B09NE00007,Fort
140,MDI42B09NE00008,1004,Occurrence,Hollinger DDH MP1-2-78,Hollinger DDH MP1-2-78,,Gold,"Copper, Nickel",Timmins,Montcalm,NAD83,48.694862000000001,-82.097493000000000,https://www.geologyontario.mines.gov.on.ca/persistent-linking?mineral-inventory=MDI42B09NE00008,Fort
141,MDI42B09SE00004,1004,Occurrence,Teck DDH Mac96-09,"Montcalm Grid H-East, Teck DDH Mac96-09",,Copper,Nickel,Timmins,Montcalm,NAD83,48.601636999999997,-82.189389000000006,https://www.geologyontario.mines.gov.on.ca/persistent-linking?mineral-inventory=MDI42B09SE00004,Fort
142,MDI42B09NE00009,1003,Discretionary Occurrence,Teck DDH Mac96-17,"Teck DDH Mac96-17, Teck- Montcalm Grid E",,Copper,Nickel,Timmins,Montcalm,NAD83,48.638427000000000,-82.136581000000007,https://www.geologyontario.mines.gov.on.ca/persistent-linking?mineral-inventory=MDI42B09NE00009,Fort
143,MDI42B09SE00003,1004,Occurrence,Teck DDH Mac96-08,"Teck DDH Mac96-08, Teck Grid H-East",,Nickel,Copper,Timmins,Strachan,NAD83,48.567101000000001,-82.246300000000005,https://www.geologyontario.mines.gov.on.ca/persistent-linking?mineral-inventory=MDI42B09SE00003,Fort
145,MDI42A12SW00023,1004,Occurrence,G. Sweet Outcrop No.2,"Dominion Gulf South, G. Sweet Outcrop No.2, Hollinger DH 2, Lepic-Gagnon No.2, OGS Sample BTA 35",,"Copper, Nickel",Cobalt,Timmins,Enid,NAD83,48.572986000000000,-81.873796999999996,https://www.geologyontario.mines.gov.on.ca/persistent-linking?mineral-inventory=MDI42A12SW00023,Fort
150,MDI42G07SW00004,1005,Past Producing Mine,Kapuskasing Phosphate Operations,"Cargill, Cargill Complex, Continental Copper, Kapuskasing Phosphate Operations",Carbonatite,Phosphate,"Clay, Copper, Nickel, Rare Earth Elements, Vermiculite",Timmins,Cargill,NAD83,49.294342000000000,-82.817305000000005,https://www.geologyontario.mines.gov.on.ca/persistent-linking?mineral-inventory=MDI42G07SW00004,Fort
153,MDI52C11NE00048,1004,Occurrence,Belacoma North,Belacoma North,,"Copper, Nickel","Gold, Platinum",Kenora,Halkirk,NAD83,48.724437999999999,-93.029777999999993,https://www.geologyontario.mines.gov.on.ca/persistent-linking?mineral-inventory=MDI52C11NE00048,Modéré
154,MDI52C11NE00049,1004,Occurrence,Belacoma South,Belacoma South,,"Copper, Nickel, Palladium, Platinum",,Kenora,Halkirk,NAD83,48.719903000000002,-93.031677999999999,https://www.geologyontario.mines.gov.on.ca/persistent-linking?mineral-inventory=MDI52C11NE00049,Modéré
156,MDI41P14NE00043,1004,Occurrence,Denison Mines DDH-2,"Denison Mines DDH-2, Strange Lake Wes",,"Copper, Nickel, Zinc","Gold, Lead",Kirkland Lake,Midlothian,NAD83,47.890697000000003,-81.019638000000000,https://www.geologyontario.mines.gov.on.ca/persistent-linking?mineral-inventory=MDI41P14NE00043,Fort
158,MDI000000002159,1004,Occurrence,Angle Bay,"Angle Bay, Barney Island, Jm-99-0972",,"Palladium, Platinum","Copper, Nickel",Thunder Bay South,Lac Des Iles Area,NAD83,49.187005999999997,-89.586409000000003,https://www.geologyontario.mines.gov.on.ca/persistent-linking?mineral-inventory=MDI000000002159,Intermédiaire
159,MDI000000002169,1004,Occurrence,Sutcliffe Zones,"Sutcliffe Zones, Tx-99-850-168",Mafic-Ultramafic Intrusion,Palladium,"Copper, Gold, Nickel, Platinum",Thunder Bay South,Lac Des Iles Area,NAD83,49.215949999999999,-89.577483000000001,https://www.geologyontario.mines.gov.on.ca/persistent-linking?mineral-inventory=MDI000000002169,Intermédiaire
160,MDI000000002163,1004,Occurrence,Phantom,Phantom,Mafic-Ultramafic Intrusion,Palladium,"Copper, Gold, Nickel, Platinum",Thunder Bay South,Lac Des Iles Area,NAD83,49.215142000000000,-89.607406999999995,https://www.geologyontario.mines.gov.on.ca/persistent-linking?mineral-inventory=MDI000000002163,Intermédiaire
161,MDI000000002162,1003,Discretionary Occurrence,Anomaly Zone,"Anomaly Zone, T00-1150-081",Mafic-Ultramafic Intrusion,"Palladium, Platinum","Copper, Nickel",Thunder Bay South,Lac Des Iles Area,NAD83,49.209935000000002,-89.570853000000000,https://www.geologyontario.mines.gov.on.ca/persistent-linking?mineral-inventory=MDI000000002162,Intermédiaire
162,MDI000000002161,1004,Occurrence,TW 2050W Zone,"Jm-99-0731, TW 2050W Zone",Mafic-Ultramafic Intrusion,"Palladium, Platinum","Copper, Gold, Nickel",Thunder Bay South,Lac Des Iles Area,NAD83,49.203969999999998,-89.584136999999998,https://www.geologyontario.mines.gov.on.ca/persistent-linking?mineral-inventory=MDI000000002161,Intermédiaire
164,MDI52F10NW00116,1004,Occurrence,Nabish Lake,"Johnston-Jeness, Nabish Lake",,"Copper, Nickel","Palladium, Platinum",Kenora,Contact Bay Area,NAD83,49.653258999999998,-92.929608000000002,https://www.geologyontario.mines.gov.on.ca/persistent-linking?mineral-inventory=MDI52F10NW00116,Modéré
166,MDI52F05NE00062,1008,Prospect,Green Bay - Ross Creek,Green Bay - Ross Creek,,"Copper, Nickel",,Kenora,Atikwa Lake Area,NAD83,49.387962999999999,-93.685231999999999,https://www.geologyontario.mines.gov.on.ca/persistent-linking?mineral-inventory=MDI52F05NE00062,Modéré
170,MDI41I14SE00025,1004,Occurrence,W.D. 13,W.D. 13,Mafic-Ultramafic Intrusion,Nickel,Copper,Sudbury,Bowell,NAD83,46.748896999999999,-81.083776999999998,https://www.geologyontario.mines.gov.on.ca/persistent-linking?mineral-inventory=MDI41I14SE00025,Très fort
173,MDI41I11NE00028,1004,Occurrence,Mining Location WD 212,Mining Location WD 212,Mafic-Ultramafic Intrusion,Nickel,Copper,Sudbury,Bowell,NAD83,46.729543000000000,-81.143897999999993,https://www.geologyontario.mines.gov.on.ca/persistent-linking?mineral-inventory=MDI41I11NE00028,Très fort
176,MDI42A05NE00124,1004,Occurrence,Hollinger DDH New 8,"Claim P.47986, Hollinger DDH New 8",,Nickel,,Timmins,Carscallen,NAD83,48.443320000000000,-81.723056000000000,https://www.geologyontario.mines.gov.on.ca/persistent-linking?mineral-inventory=MDI42A05NE00124,Fort
177,MDI000000001146,1008,Prospect,Buck Lake,Buck Lake,Mafic-Ultramafic Intrusion,"Copper, Nickel, Palladium, Platinum",,Thunder Bay South,Tib Lake Area,NAD83,49.162182999999999,-89.982056999999998,https://www.geologyontario.mines.gov.on.ca/persistent-linking?mineral-inventory=MDI000000001146,Intermédiaire
178,MDI31F04NE00077,1004,Occurrence,Landolac Property,"Inwood Showing, Landolac Property","Mafic-Ultramafic Intrusion, Magmatic","Cobalt, Copper, Nickel",,Southern Ontario,Raglan,NAD83,45.161749000000000,-77.532041000000007,https://www.geologyontario.mines.gov.on.ca/persistent-linking?mineral-inventory=MDI31F04NE00077,Faible
181,MDI52H13NE00018,1004,Occurrence,Commerce East,Commerce East,Mafic-Ultramafic Intrusion,"Gold, Nickel","Chromium, Cobalt, Iron, Palladium, Platinum",Thunder Bay South,Puddy Lake Area,NAD83,49.966259000000001,-89.517903000000004,https://www.geologyontario.mines.gov.on.ca/persistent-linking?mineral-inventory=MDI52H13NE00018,Intermédiaire
183,MDI000000001800,1004,Occurrence,Chrome Puddy,"Chrome Puddy, Commerce Far West, Commerce Northwest",Mafic-Ultramafic Intrusion,"Copper, Nickel","Chromium, Cobalt, Iron",Thunder Bay South,Puddy Lake Area,NAD83,49.965269999999997,-89.554485999999997,https://www.geologyontario.mines.gov.on.ca/persistent-linking?mineral-inventory=MDI000000001800,Intermédiaire
184,MDI41I16NW00055,1004,Occurrence,J. Sirola,"Emerald Lake Property, J. Sirola, Sirola Prospect",Mafic-Ultramafic Intrusion,"Copper, Nickel",,Sudbury,McCarthy,NAD83,46.876083999999999,-80.429378000000000,https://www.geologyontario.mines.gov.on.ca/persistent-linking?mineral-inventory=MDI41I16NW00055,Très fort
185,MDI000000002160,1004,Occurrence,North LDI Island Showing,"Jm-99-1317, North LDI Island Showing",Mafic-Ultramafic Intrusion,"Gold, Palladium, Platinum","Copper, Nickel",Thunder Bay South,Lac Des Iles Area,NAD83,49.200780999999999,-89.605936999999997,https://www.geologyontario.mines.gov.on.ca/persistent-linking?mineral-inventory=MDI000000002160,Intermédiaire
186,MDI000000002157,1004,Occurrence,Murph,Murph,Mafic-Ultramafic Intrusion,Palladium,"Copper, Nickel, Platinum",Thunder Bay South,Lac Des Iles Area,NAD83,49.199660000000002,-89.585901000000007,https://www.geologyontario.mines.gov.on.ca/persistent-linking?mineral-inventory=MDI000000002157,Intermédiaire
187,MDI000000001801,1004,Occurrence,Commerce West,Commerce West,Mafic-Ultramafic Intrusion,Nickel,"Chromium, Cobalt, Iron",Thunder Bay South,Puddy Lake Area,NAD83,49.968071999999999,-89.540772000000004,https://www.geologyontario.mines.gov.on.ca/persistent-linking?mineral-inventory=MDI000000001801,Intermédiaire
190,MDI41I16SW00014,1003,Discretionary Occurrence,Maskinonge Lake Sample 204128,Maskinonge Lake Sample 204128,,"Copper, Nickel","Palladium, Platinum",Sudbury,McCarthy,NAD83,46.801487000000002,-80.459954999999994,https://www.geologyontario.mines.gov.on.ca/persistent-linking?mineral-inventory=MDI41I16SW00014,Très fort
191,MDI41I15SE00007,1008,Prospect,Comstock Prospect,"Comstock Prospect, Crystal-Comstock Mine, J. Gill Property, Mining Location WR 40",Vein,"Copper, Gold",Nickel,Sudbury,Rathbun,NAD83,46.751282000000003,-80.624707000000001,https://www.geologyontario.mines.gov.on.ca/persistent-linking?mineral-inventory=MDI41I15SE00007,Très fort
192,MDI31M03NW00017,1008,Prospect,C.W. Coo Property,"C.W. Coo Property, Rl- 458, Williams Claim",Vein (Cobalt-Type),"Nickel, Silver","Cobalt, Copper",Kirkland Lake,South Lorrain,NAD83,47.197209000000001,-79.495155999999994,https://www.geologyontario.mines.gov.on.ca/persistent-linking?mineral-inventory=MDI31M03NW00017,Fort
193,MDI42A04NW00046,1004,Occurrence,Akweskwa Lake,Akweskwa Lake,,"Copper, Nickel",,Timmins,Kenogaming,NAD83,48.139991999999999,-81.923190000000005,https://www.geologyontario.mines.gov.on.ca/persistent-linking?mineral-inventory=MDI42A04NW00046,Fort
194,MDI000000000765,1004,Occurrence,Kelly-Davis Property Zone 2,Kelly-Davis Property Zone 2,Mafic-Ultramafic Intrusion,"Copper, Nickel, Palladium","Gold, Platinum",Sudbury,Kelly,NAD83,46.718268999999999,-80.440779000000006,https://www.geologyontario.mines.gov.on.ca/persistent-linking?mineral-inventory=MDI000000000765,Très fort
195,MDI41I09NW00019,1004,Occurrence,Racicot sample 2566,"Kelly-Davis Property - Zone 1, Racicot sample 2566",Mafic-Ultramafic Intrusion,"Copper, Nickel, Palladium, Platinum",,Sudbury,Kelly,NAD83,46.715403000000002,-80.441646000000006,https://www.geologyontario.mines.gov.on.ca/persistent-linking?mineral-inventory=MDI41I09NW00019,Très fort
199,MDI31E13NE00003,1003,Discretionary Occurrence,Schmeler Property,Schmeler Property,,Copper,Nickel,Sudbury,Lount,NAD83,45.751112999999997,-79.654732999999993,https://www.geologyontario.mines.gov.on.ca/persistent-linking?mineral-inventory=MDI31E13NE00003,Très fort
202,MDI41I15SE00022,1008,Prospect,Dolmac Mines Property,"Bonanza Nickel Mining Co., Burton Prospect, Dolmac Mines Property, Mining Location F4, Rathbun Lake Occurrence",Mafic-Ultramafic Intrusion,"Copper, Nickel, Palladium, Platinum","Gold, Silver",Sudbury,Rathbun,NAD83,46.764122999999998,-80.655890999999997,https://www.geologyontario.mines.gov.on.ca/persistent-linking?mineral-inventory=MDI41I15SE00022,Très fort
208,MDI41P06SE00014,1004,Occurrence,Pantino Sample 9738,"Pantino Sample 9738, Saturday Lake",Vein,"Cobalt, Silver",Nickel,Sudbury,Unwin,NAD83,47.311785000000000,-81.095605000000006,https://www.geologyontario.mines.gov.on.ca/persistent-linking?mineral-inventory=MDI41P06SE00014,Très fort
209,MDI41P06SE00013,1004,Occurrence,White Lake,"Annett Option, White Lake",Vein,"Cobalt, Nickel","Gold, Silver",Sudbury,Unwin,NAD83,47.302442999999997,-81.097307000000001,https://www.geologyontario.mines.gov.on.ca/persistent-linking?mineral-inventory=MDI41P06SE00013,Très fort
210,MDI41I06NW00017,1001,Deposit,Vermilion Mine,"Vermilion Gold Mining Company, Vermilion Mine","Vein, Volcanogenic","Copper, Nickel","Arsenic, Gold, Iron, Palladium, Platinum, Selenium, Silver, Tellurium, Tin",Sudbury,Denison,NAD83,46.415497000000002,-81.360816999999997,https://www.geologyontario.mines.gov.on.ca/persistent-linking?mineral-inventory=MDI41I06NW00017,Très fort
212,MDI000000000691,1004,Occurrence,Coomer Lake,"Coomer Lake, Highbank Lake Property, Northern Shield DDH 06HB-04",Mafic-Ultramafic Intrusion,"Iron, Nickel, Vanadium","Copper, Titanium",Thunder Bay North,BMA 524 861,NAD83,52.403115999999997,-86.203355999999999,https://www.geologyontario.mines.gov.on.ca/persistent-linking?mineral-inventory=MDI000000000691,Intermédiaire
217,MDI42A10NW00039,1001,Deposit,Dundonald South Deposit,"Dundonald Beach, Dundonald Nickel, Dundonald South Deposit",,"Cobalt, Nickel, Palladium, Platinum","Copper, Iridium, Rhodium",Timmins,Dundonald,NAD83,48.629466999999998,-80.842737999999997,https://www.geologyontario.mines.gov.on.ca/persistent-linking?mineral-inventory=MDI42A10NW00039,Fort
218,MDI31E13SE00030,1004,Occurrence,P. C. McLean Showing,P. C. McLean Showing,,Nickel,Copper,Sudbury,Lount,NAD83,45.769019999999998,-79.661233999999993,https://www.geologyontario.mines.gov.on.ca/persistent-linking?mineral-inventory=MDI31E13SE00030,Très fort
219,MDI41P07NE00018,1008,Prospect,F. Wilder Prospect,F. Wilder Prospect,Vein,"Cobalt, Silver",Nickel,Kirkland Lake,Donovan,NAD83,47.472219000000003,-80.692673999999997,https://www.geologyontario.mines.gov.on.ca/persistent-linking?mineral-inventory=MDI41P07NE00018,Fort
220,MDI41P07NE00016,1008,Prospect,Gowganda-Duggan Mine,"Duggain, Gowganda-Duggan Mine",Vein,Silver,"Cobalt, Nickel",Kirkland Lake,Donovan,NAD83,47.468876999999999,-80.723082000000005,https://www.geologyontario.mines.gov.on.ca/persistent-linking?mineral-inventory=MDI41P07NE00016,Fort
223,MDI41I07NW00017,1003,Discretionary Occurrence,North Doctor Creek,North Doctor Creek,,"Copper, Nickel",Sulphur/Pyrite,Sudbury,Dryden,NAD83,46.474170999999998,-80.784375999999995,https://www.geologyontario.mines.gov.on.ca/persistent-linking?mineral-inventory=MDI41I07NW00017,Très fort
224,MDI41P10SE00002,1009,Past Producing Mine (Low Tonnage),Kell Claims,"J. Ploeger, Kell Claims, Kell Mine",Vein,"Cobalt, Copper, Nickel, Silver",,Kirkland Lake,Corkill,NAD83,47.505381000000000,-80.647330999999994,https://www.geologyontario.mines.gov.on.ca/persistent-linking?mineral-inventory=MDI41P10SE00002,Fort
226,MDI41P07NE00017,1003,Discretionary Occurrence,Hains Shaft,"Claim G.G.2606, Hains Shaft",,Silver,"Cobalt, Nickel",Kirkland Lake,Donovan,NAD83,47.475616000000002,-80.719064000000003,https://www.geologyontario.mines.gov.on.ca/persistent-linking?mineral-inventory=MDI41P07NE00017,Fort
228,MDI000000000655,1004,Occurrence,Laurion DH BI-07-01,Laurion DH BI-07-01,,Nickel,"Copper, Palladium",Timmins,Enid,NAD83,48.542186999999998,-81.869649999999993,https://www.geologyontario.mines.gov.on.ca/persistent-linking?mineral-inventory=MDI000000000655,Fort
234,MDI31E13SE00076,1004,Occurrence,Lot 124 Con A,Lot 124 Con A,,Copper,"Gold, Nickel",Sudbury,Lount,NAD83,45.767575999999998,-79.620087999999996,https://www.geologyontario.mines.gov.on.ca/persistent-linking?mineral-inventory=MDI31E13SE00076,Très fort
235,MDI31E13SE00074,1004,Occurrence,Lot 14 Con 3 Copper,Lot 14 Con 3 Copper,,Copper,"Gold, Nickel",Sudbury,Lount,NAD83,45.784261999999998,-79.595607000000001,https://www.geologyontario.mines.gov.on.ca/persistent-linking?mineral-inventory=MDI31E13SE00074,Très fort
242,MDI000000000125,1004,Occurrence,Inco DH 27051A / 27074,Inco DH 27051A / 27074,,"Copper, Nickel",,Timmins,Aubin,NAD83,48.887326999999999,-81.556685000000002,https://www.geologyontario.mines.gov.on.ca/persistent-linking?mineral-inventory=MDI000000000125,Fort
246,MDI52F10NW00152,1004,Occurrence,Nabish Lake - Southeast,Nabish Lake - Southeast,,"Copper, Nickel",,Kenora,Contact Bay Area,NAD83,49.649946000000000,-92.942983999999996,https://www.geologyontario.mines.gov.on.ca/persistent-linking?mineral-inventory=MDI52F10NW00152,Modéré
248,MDI41I03NW00016,1003,Discretionary Occurrence,McCloskey DDH-4,"McCloskey DDH-4, Penage Lake Property Dieppe Twp","Hydrothermal, Sedimentary, Vein",Copper,Nickel,Sudbury,Dieppe,NAD83,46.217117999999999,-81.434455000000000,https://www.geologyontario.mines.gov.on.ca/persistent-linking?mineral-inventory=MDI41I03NW00016,Très fort
249,MDI52F08NW00042,1004,Occurrence,Alcock - Jergenson,"Alcock, Alcock - Jergenson",,"Copper, Nickel",,Kenora,Tadpole Lake Area,NAD83,49.434016000000000,-92.295010000000005,https://www.geologyontario.mines.gov.on.ca/persistent-linking?mineral-inventory=MDI52F08NW00042,Modéré
250,MDI41I15SW00067,1008,Prospect,New Dominion Nickel Mines Property,"Jonsmith Mines Ltd., New Dominion Nickel Mines Property",Mafic-Ultramafic Intrusion,"Copper, Nickel",,Sudbury,Norman,NAD83,46.773403999999999,-80.896379999999994,https://www.geologyontario.mines.gov.on.ca/persistent-linking?mineral-inventory=MDI41I15SW00067,Très fort
258,MDI41I07NE00004,1003,Discretionary Occurrence,Arcadia South Showing,Arcadia South Showing,,"Copper, Nickel",,Sudbury,Neelon,NAD83,46.496155999999999,-80.832558000000006,https://www.geologyontario.mines.gov.on.ca/persistent-linking?mineral-inventory=MDI41I07NE00004,Très fort
259,MDI52F10NW00143,1004,Occurrence,Mile Lake Showing,"Harrison Showing, Mile Lake Showing, Nichro Mines",,"Copper, Nickel, Palladium, Platinum",,Kenora,Contact Bay Area,NAD83,49.679431000000001,-92.786355000000000,https://www.geologyontario.mines.gov.on.ca/persistent-linking?mineral-inventory=MDI52F10NW00143,Modéré
263,MDI000000000783,1004,Occurrence,W.D. 16 Property,W.D. 16 Property,Mafic-Ultramafic Intrusion,"Copper, Nickel",,Sudbury,Wisner,NAD83,46.754924000000003,-81.038600000000002,https://www.geologyontario.mines.gov.on.ca/persistent-linking?mineral-inventory=MDI000000000783,Très fort
264,MDI41I11NE00020,1004,Occurrence,Mining Location WD36,"Foy Offset Property, Mining Location WD36, Nelson River Property",Mafic-Ultramafic Intrusion,"Copper, Nickel","Palladium, Platinum, Zinc",Sudbury,Bowell,NAD83,46.737524000000001,-81.121561999999997,https://www.geologyontario.mines.gov.on.ca/persistent-linking?mineral-inventory=MDI41I11NE00020,Très fort
265,MDI41I06SW00036,1004,Occurrence,Fire Tower West,"Fire Tower West, Louie Lake Property, West Lake Mining Claims property","Igneous Contact, Mafic-Ultramafic Intrusion","Copper, Nickel",Cobalt,Sudbury,Louise,NAD83,46.318026000000003,-81.392870000000002,https://www.geologyontario.mines.gov.on.ca/persistent-linking?mineral-inventory=MDI41I06SW00036,Très fort
268,MDI41I04SE00036,1003,Discretionary Occurrence,McGregor Island NE Sulphides,McGregor Island NE Sulphides,,Sulphur/Pyrite,"Copper, Nickel",Sudbury,McGregor Island Area,NAD83,46.086886000000000,-81.558458999999999,https://www.geologyontario.mines.gov.on.ca/persistent-linking?mineral-inventory=MDI41I04SE00036,Très fort
271,MDI41I11NE00019,1003,Discretionary Occurrence,W.D. 231,"Foy Offset, Rand Creek Occurrence, W.D. 231",Mafic-Ultramafic Intrusion,"Copper, Nickel",,Sudbury,Bowell,NAD83,46.724448000000002,-81.158410000000003,https://www.geologyontario.mines.gov.on.ca/persistent-linking?mineral-inventory=MDI41I11NE00019,Très fort
274,MDI41I14SW00013,1004,Occurrence,Maki- Kainola Option,"Maki- Kainola Option, Tyrone",Mafic-Ultramafic Intrusion,"Copper, Nickel","Gold, Palladium, Platinum",Sudbury,Tyrone,NAD83,46.803547999999999,-81.309618000000000,https://www.geologyontario.mines.gov.on.ca/persistent-linking?mineral-inventory=MDI41I14SW00013,Très fort
281,MDI000000001473,1004,Occurrence,Fletcher Sample 6062,Fletcher Sample 6062,,Nickel,,Timmins,McArthur,NAD83,48.214146999999997,-81.256197999999998,https://www.geologyontario.mines.gov.on.ca/persistent-linking?mineral-inventory=MDI000000001473,Fort
282,MDI42A03NW00027,1004,Occurrence,"Paymaster DH 1957-1, 1957-2","BHP Minerals DH 92MDD-05, Paymaster DH 1957-1, 1957-2",,Nickel,,Timmins,McArthur,NAD83,48.218152000000003,-81.259759000000003,https://www.geologyontario.mines.gov.on.ca/persistent-linking?mineral-inventory=MDI42A03NW00027,Fort
288,MDI000000002064,1004,Occurrence,Sample 16JW822A1,"Sample 16JW822A1, Station 16JW822",,Nickel,,Sault Ste. Marie,Copenace,NAD83,48.230182999999997,-84.035148000000007,https://www.geologyontario.mines.gov.on.ca/persistent-linking?mineral-inventory=MDI000000002064,Faible
289,MDI000000002065,1004,Occurrence,Sample 16JW826A2,"Sample 16JW826A2, Station 16JW826",,Nickel,,Sault Ste. Marie,Copenace,NAD83,48.231440999999997,-84.032624999999996,https://www.geologyontario.mines.gov.on.ca/persistent-linking?mineral-inventory=MDI000000002065,Faible
290,MDI000000002066,1004,Occurrence,Sample 16JW830A,"Sample 16JW830A, Station 16JW830",,Nickel,,Sault Ste. Marie,Copenace,NAD83,48.236046999999999,-84.020774000000003,https://www.geologyontario.mines.gov.on.ca/persistent-linking?mineral-inventory=MDI000000002066,Faible
291,MDI000000002067,1004,Occurrence,Sample 16JW831A,"Sample 16JW831A, Station 16JW831",,Nickel,,Sault Ste. Marie,Copenace,NAD83,48.237954000000002,-84.018683999999993,https://www.geologyontario.mines.gov.on.ca/persistent-linking?mineral-inventory=MDI000000002067,Faible
292,MDI42A03NE00029,1004,Occurrence,Bar-Mil Option,"Bar-Mil Option, Lakehead Mines DDH L-2A",,Nickel,Copper,Timmins,Douglas,NAD83,48.192157000000002,-81.203086999999996,https://www.geologyontario.mines.gov.on.ca/persistent-linking?mineral-inventory=MDI42A03NE00029,Fort
293,MDI000000001479,1004,Occurrence,Fletcher Nickel Sample 1337069,"Fletcher Nickel Sample 1337069, Whitmarsh Property",,Nickel,Gold,Timmins,McArthur,NAD83,48.202553000000002,-81.233974000000003,https://www.geologyontario.mines.gov.on.ca/persistent-linking?mineral-inventory=MDI000000001479,Fort
294,MDI000000001480,1004,Occurrence,Fletcher Nickel Sample 1337073,Fletcher Nickel Sample 1337073,,Nickel,,Timmins,McArthur,NAD83,48.210014999999999,-81.232096999999996,https://www.geologyontario.mines.gov.on.ca/persistent-linking?mineral-inventory=MDI000000001480,Fort
295,MDI000000002063,1004,Occurrence,Sample 16JW821A1Dark,"Sample 16JW821A1Dark, Station 16JW821",,Nickel,,Sault Ste. Marie,Copenace,NAD83,48.229270000000000,-84.036736000000005,https://www.geologyontario.mines.gov.on.ca/persistent-linking?mineral-inventory=MDI000000002063,Faible
298,MDI000000001930,1004,Occurrence,Consolidated Venturex Holdings Inc.,"Consolidated Venturex Holdings Inc., Denison Township Cu-Ni-PGE Property, Last Day Showing",Mafic-Ultramafic Intrusion,"Copper, Nickel, Palladium","Gold, Platinum",Sudbury,Denison,NAD83,46.386920000000003,-81.409711000000001,https://www.geologyontario.mines.gov.on.ca/persistent-linking?mineral-inventory=MDI000000001930,Très fort
299,MDI31F03NW00041,1008,Prospect,Raglan Prospect,Raglan Prospect,Mafic-Ultramafic Intrusion,"Cobalt, Copper, Nickel, Palladium, Platinum",Chromium,Southern Ontario,Raglan,NAD83,45.199711000000001,-77.468663000000006,https://www.geologyontario.mines.gov.on.ca/persistent-linking?mineral-inventory=MDI31F03NW00041,Faible
303,MDI000000001932,1004,Occurrence,New Wine Showing,New Wine Showing,Mafic-Ultramafic Intrusion,"Copper, Nickel, Palladium, Platinum",Gold,Sudbury,Denison,NAD83,46.382291000000002,-81.413265999999993,https://www.geologyontario.mines.gov.on.ca/persistent-linking?mineral-inventory=MDI000000001932,Très fort
309,MDI52H13NE00012,1001,Deposit,Puddy Lake,"Commerce Nickel Mines Ltd., Puddy Lake",Mafic-Ultramafic Intrusion,"Iron, Nickel, Palladium","Chromium, Cobalt, Copper, Gold, Platinum, Silver, Zinc",Thunder Bay South,Puddy Lake Area,NAD83,49.965437999999999,-89.527524000000000,https://www.geologyontario.mines.gov.on.ca/persistent-linking?mineral-inventory=MDI52H13NE00012,Intermédiaire
313,MDI31L13NW00022,1004,Occurrence,Keith Property,Keith Property,Vein,"Copper, Nickel","Gold, Silver",Kirkland Lake,Law,NAD83,46.886811000000002,-79.792213000000004,https://www.geologyontario.mines.gov.on.ca/persistent-linking?mineral-inventory=MDI31L13NW00022,Fort
314,MDI000000001475,1004,Occurrence,Fletcher Sample 1337059,Fletcher Sample 1337059,,Nickel,,Timmins,McArthur,NAD83,48.225614000000000,-81.273933999999997,https://www.geologyontario.mines.gov.on.ca/persistent-linking?mineral-inventory=MDI000000001475,Fort
320,MDI000000001870,1004,Occurrence,Semple-Hulbert,Semple-Hulbert,VMS Base Metal,"Cobalt, Palladium","Copper, Gold, Nickel, Platinum",Thunder Bay North,East of Croal Lake Area,NAD83,53.543976000000001,-87.740244000000004,https://www.geologyontario.mines.gov.on.ca/persistent-linking?mineral-inventory=MDI000000001870,Intermédiaire
321,MDI41I11NW00060,1004,Occurrence,McCreedy East,McCreedy East,,"Copper, Nickel",,Sudbury,Levack,NAD83,46.667856999999998,-81.349553999999998,https://www.geologyontario.mines.gov.on.ca/persistent-linking?mineral-inventory=MDI41I11NW00060,Très fort
322,MDI41I11NW00002,1007,Producing Mine,Coleman Mine,Coleman Mine,,"Copper, Nickel, Palladium, Platinum","Cobalt, Gold, Iron, Selenium, Silver, Sulphur/Pyrite, Tellurium",Sudbury,Levack,NAD83,46.677652999999999,-81.339950999999999,https://www.geologyontario.mines.gov.on.ca/persistent-linking?mineral-inventory=MDI41I11NW00002,Très fort
323,MDI42A06SW00024,1001,Deposit,Timmins Talc-Magnesite Property,"Alton Property, Canadian Magnesite Deposit, Porcupine Southgate Property, Timmins Talc-Magnesite Property","Komatiite-hosted, Replacement","Magnesium Minerals, Nickel, Talc",Gold,Timmins,Deloro,NAD83,48.373477000000001,-81.272890000000004,https://www.geologyontario.mines.gov.on.ca/persistent-linking?mineral-inventory=MDI42A06SW00024,Fort
324,MDI42A06NW00190,1001,Deposit,Deloro Nickel,"Deloro Nickel, ONTEX Resources DDH FY-02-02",,Nickel,"Asbestos, Chromium, Cobalt, Gold, Iron, Palladium, Platinum",Timmins,Deloro,NAD83,48.404643000000000,-81.264579999999995,https://www.geologyontario.mines.gov.on.ca/persistent-linking?mineral-inventory=MDI42A06NW00190,Fort
328,MDI42A03NE00002,1005,Past Producing Mine,Texmont Mine,"Fatima Mine, Texmont Mine, Texmont Project",Komatiite-hosted,"Cobalt, Nickel","Copper, Platinum",Timmins,Bartlett,NAD83,48.163939999999997,-81.204549000000000,https://www.geologyontario.mines.gov.on.ca/persistent-linking?mineral-inventory=MDI42A03NE00002,Fort
332,MDI41I06NW00016,1005,Past Producing Mine,Crean Hill,"Crean Hill, Crean Hill No. 1, Denison Project","Igneous Contact, Magmatic","Copper, Nickel, Palladium, Platinum","Cobalt, Gold, Iron, Selenium, Silver, Sulphur/Pyrite, Tellurium",Sudbury,Denison,NAD83,46.429026999999998,-81.350909999999999,https://www.geologyontario.mines.gov.on.ca/persistent-linking?mineral-inventory=MDI41I06NW00016,Très fort
333,MDI000000001901,1004,Occurrence,Bulldozer,Bulldozer,,"Copper, Nickel","Palladium, Platinum",Thunder Bay South,Shabotik,NAD83,48.945317000000003,-85.414722999999995,https://www.geologyontario.mines.gov.on.ca/persistent-linking?mineral-inventory=MDI000000001901,Intermédiaire
334,MDI41I06NW00102,1003,Discretionary Occurrence,Ethel Lake,"Ethel Lake, H. Ranger Property",Vein,"Copper, Nickel",,Sudbury,Denison,NAD83,46.412410000000001,-81.383098000000004,https://www.geologyontario.mines.gov.on.ca/persistent-linking?mineral-inventory=MDI41I06NW00102,Très fort
335,MDI41I06NW00099,1003,Discretionary Occurrence,J. Morin and J. McFadden Property,J. Morin and J. McFadden Property,,"Copper, Nickel",,Sudbury,Denison,NAD83,46.428930999999999,-81.364393000000007,https://www.geologyontario.mines.gov.on.ca/persistent-linking?mineral-inventory=MDI41I06NW00099,Très fort
337,MDI31M05NE00047,1005,Past Producing Mine,Kerr Lake Mine,"Glen Lake Silver Mines Ltd., Kerr Lake Lease (HiHo Silver Mines), Kerr Lake Mine",Vein (Cobalt-Type),"Cobalt, Silver","Copper, Nickel, Uranium",Kirkland Lake,Coleman,NAD83,47.375580999999997,-79.656825999999995,https://www.geologyontario.mines.gov.on.ca/persistent-linking?mineral-inventory=MDI31M05NE00047,Fort
340,MDI31M05SE00016,1005,Past Producing Mine,Foster-Cobalt Mining Co. Ltd.,"Agnico-Mines Ltd., Cobalt Consolidated Mining Corp. Ltd., Cobalt Products Ltd. Silanco Mining and Smelting Corp. Ltd., Foster-Cobalt Mining Co. Ltd., Glen Lake Cobalt Mines Ltd. (leased), Penn-Cobalt Silver Mines Ltd., University Shaft, leased to Argentu",Vein (Cobalt-Type),"Cobalt, Silver","Copper, Gold, Lead, Nickel, Zinc",Kirkland Lake,Coleman,NAD83,47.373075000000000,-79.664944000000006,https://www.geologyontario.mines.gov.on.ca/persistent-linking?mineral-inventory=MDI31M05SE00016,Fort
351,MDI000000004640,1004,Occurrence,St. Paul's Bay Nickel,St. Paul's Bay Nickel,,Nickel,Cobalt,Red Lake,Heyson,NAD83,51.015433999999999,-93.897593000000001,https://www.geologyontario.mines.gov.on.ca/persistent-linking?mineral-inventory=MDI000000004640,Modéré
354,MDI000000004740,1001,Deposit,Gemini North Nickel Zone,Gemini North Nickel Zone,Komatiite-hosted,Nickel,"Cobalt, Palladium, Platinum",Timmins,Carman,NAD83,48.389346000000003,-81.018450999999999,https://www.geologyontario.mines.gov.on.ca/persistent-linking?mineral-inventory=MDI000000004740,Fort
355,MDI42A03NW00021,1004,Occurrence,Amador DH FP-08-02A,"Amador DH FP-08-02A, Bruce Lake, Filo Area A, Hollinger Nickel",,"Copper, Nickel, Zinc","Cobalt, Lead, Silver",Timmins,Fripp,NAD83,48.230294000000001,-81.399190000000004,https://www.geologyontario.mines.gov.on.ca/persistent-linking?mineral-inventory=MDI42A03NW00021,Fort
357,MDI31M05NE00038,1005,Past Producing Mine,M.J. O'Brien Ltd.,"Agnico Mines Ltd., Cross Lake Lease, Deer Horn Mines Ltd., L.J. O'Shaughnessy (Shag Silver Mines), M.J. O'Brien Ltd.",Vein (Cobalt-Type),"Cobalt, Silver","Copper, Lead, Nickel, Zinc",Kirkland Lake,Coleman,NAD83,47.391067999999997,-79.645488000000000,https://www.geologyontario.mines.gov.on.ca/persistent-linking?mineral-inventory=MDI31M05NE00038,Fort
358,MDI31M05NE00079,1009,Past Producing Mine (Low Tonnage),Deer Horn Mines Ltd.,"Canadaka Mines Ltd., Deer Horn Mines Ltd., Reinhardt Cross Lake Group",Vein,"Cobalt, Silver","Copper, Nickel",Kirkland Lake,Coleman,NAD83,47.390670000000000,-79.645634999999999,https://www.geologyontario.mines.gov.on.ca/persistent-linking?mineral-inventory=MDI31M05NE00079,Fort
359,MDI31M05NE00077,1009,Past Producing Mine (Low Tonnage),Silver Cliff Mining Company Ltd.,"A.B. Pilliner and Associates, Ausic Mining and Reduction Co. Ltd., Bailey Mines Ltd., Northern Customs Concentrators Ltd., Rix Athabasca Uranium Mines Ltd., Silver Cliff Mining Company Ltd., United Cobalt Mines Ltd.",,"Cobalt, Silver","Copper, Nickel",Kirkland Lake,Coleman,NAD83,47.394046000000003,-79.655310000000000,https://www.geologyontario.mines.gov.on.ca/persistent-linking?mineral-inventory=MDI31M05NE00077,Fort
360,MDI000000000271,1004,Occurrence,Sanderson Property,"Anomaly M-24, Big Mac Property, MacDonald Mines DDH BM-9B, Sanderson Property",,"Nickel, Vanadium","Cobalt, Titanium",Thunder Bay North,BMA 532 862,NAD83,53.215825000000002,-86.270651999999998,https://www.geologyontario.mines.gov.on.ca/persistent-linking?mineral-inventory=MDI000000000271,Intermédiaire
367,MDI42A06SE00062,1005,Past Producing Mine,McWatters Mine,"Coldstream Property, McWatters Deposit, McWatters Mine, Tontine Deposit","Mafic-Ultramafic Intrusion, Magmatic","Copper, Nickel","Asbestos, Cobalt, Palladium, Platinum",Timmins,Langmuir,NAD83,48.313732000000002,-81.042323999999994,https://www.geologyontario.mines.gov.on.ca/persistent-linking?mineral-inventory=MDI42A06SE00062,Fort
368,MDI000000000858,1004,Occurrence,DDH Gp2-08-01,"DDH Gp2-08-01, GP Property",Mafic-Ultramafic Intrusion,"Copper, Nickel",,Thunder Bay North,BMA 522 871,NAD83,52.246718999999999,-87.071023999999994,https://www.geologyontario.mines.gov.on.ca/persistent-linking?mineral-inventory=MDI000000000858,Intermédiaire
370,MDI31C12NW00127,1004,Occurrence,Horse Lake,"Horse Lake, Trigan West Gabbro, Tripp",,Iron,"Copper, Nickel, Titanium",Southern Ontario,Methuen,NAD83,44.580367000000003,-77.978993000000003,https://www.geologyontario.mines.gov.on.ca/persistent-linking?mineral-inventory=MDI31C12NW00127,Faible
376,MDI31M04SE00026,1009,Past Producing Mine (Low Tonnage),Ogistoh Mine,"Cooper Lake Property, Huronian Belt Claim 17,688, Ogistoh Mine",Vein (Cobalt-Type),"Cobalt, Copper, Gold, Nickel, Silver",,Kirkland Lake,Eldridge,NAD83,47.059168000000000,-79.528411000000006,https://www.geologyontario.mines.gov.on.ca/persistent-linking?mineral-inventory=MDI31M04SE00026,Fort
379,MDI42A15NW00003,1004,Occurrence,Falconbridge DDH MAN64-01,Falconbridge DDH MAN64-01,,Nickel,,Timmins,Hanna,NAD83,48.885064999999997,-80.994433000000001,https://www.geologyontario.mines.gov.on.ca/persistent-linking?mineral-inventory=MDI42A15NW00003,Fort
380,MDI42A14NE00069,1003,Discretionary Occurrence,Shell Resources DDH 7602-78-02,"Shell Grid 34-40, Shell Resources DDH 7602-78-02",,Zinc,"Copper, Nickel",Timmins,Hanna,NAD83,48.885508999999999,-81.036309000000003,https://www.geologyontario.mines.gov.on.ca/persistent-linking?mineral-inventory=MDI42A14NE00069,Fort
381,MDI000000001729,1004,Occurrence,Teck DDH MAC97-24,Teck DDH MAC97-24,,Nickel,,Timmins,Nova,NAD83,48.573742000000003,-82.266717000000000,https://www.geologyontario.mines.gov.on.ca/persistent-linking?mineral-inventory=MDI000000001729,Fort
382,MDI42B09SW00011,1004,Occurrence,Teck DDH MAC96-07,"Nova Grid H-West, Teck DDH MAC96-07",,Nickel,Copper,Timmins,Nova,NAD83,48.568576999999998,-82.281458999999998,https://www.geologyontario.mines.gov.on.ca/persistent-linking?mineral-inventory=MDI42B09SW00011,Fort
383,MDI42B09SW00010,1004,Occurrence,Teck DDH Mac96-06,"Teck DDH Mac96-06, Teck Nova Grid H-West",,Nickel,Copper,Timmins,Nova,NAD83,48.576002000000003,-82.294852000000006,https://www.geologyontario.mines.gov.on.ca/persistent-linking?mineral-inventory=MDI42B09SW00010,Fort
384,MDI000000000142,1004,Occurrence,Sim Lake Occurrence,Sim Lake Occurrence,Mafic-Ultramafic Intrusion,"Copper, Nickel, Palladium, Platinum","Chromium, Cobalt",Thunder Bay North,Sim Lake Area,NAD83,51.082780999999997,-88.186403999999996,https://www.geologyontario.mines.gov.on.ca/persistent-linking?mineral-inventory=MDI000000000142,Intermédiaire
385,MDI000000001750,1004,Occurrence,Pacific North West Capital Corp. DDH WTM-05-13,Pacific North West Capital Corp. DDH WTM-05-13,,Nickel,Copper,Timmins,Montcalm,NAD83,48.634909999999998,-82.147390999999999,https://www.geologyontario.mines.gov.on.ca/persistent-linking?mineral-inventory=MDI000000001750,Fort
388,MDI31M05SE00113,1004,Occurrence,Williamson Claims,Williamson Claims,Vein (Cobalt-Type),"Cobalt, Nickel",,Kirkland Lake,Gillies Limit,NAD83,47.321083999999999,-79.709884000000002,https://www.geologyontario.mines.gov.on.ca/persistent-linking?mineral-inventory=MDI31M05SE00113,Fort
393,MDI000000001501,1004,Occurrence,Klondike Sample 15453,Klondike Sample 15453,,Nickel,,Timmins,Price,NAD83,48.285840999999998,-81.391130000000004,https://www.geologyontario.mines.gov.on.ca/persistent-linking?mineral-inventory=MDI000000001501,Fort
400,MDI53C05NE00004,1003,Discretionary Occurrence,Asbestos Corp Discovery No. 1,Asbestos Corp Discovery No. 1,Mafic-Ultramafic Intrusion,"Copper, Nickel",,Red Lake,Hornby Lake Area,NAD83,52.473106000000001,-93.589065000000005,https://www.geologyontario.mines.gov.on.ca/persistent-linking?mineral-inventory=MDI53C05NE00004,Modéré
415,MDI31L05SW00004,1004,Occurrence,Iron Island,"Iron Island, Iron Island Complex",Carbonatite,"Niobium, Uranium","Barite, Fluorite, Iron, Nickel, Tin",Sudbury,,NAD83,46.261149000000003,-79.882012000000003,https://www.geologyontario.mines.gov.on.ca/persistent-linking?mineral-inventory=MDI31L05SW00004,Très fort
417,MDI000000002137,1001,Deposit,Sheriff,"Powerline, Sheriff, South Pit, Southeast Roby, Twilight",Mafic-Ultramafic Intrusion,Palladium,"Copper, Gold, Nickel, Platinum",Thunder Bay South,Lac Des Iles Area,NAD83,49.167468000000000,-89.609853999999999,https://www.geologyontario.mines.gov.on.ca/persistent-linking?mineral-inventory=MDI000000002137,Intermédiaire
418,MDI000000002136,1008,Prospect,Baker Zone,"A Zone, Baker Zone",Mafic-Ultramafic Intrusion,Palladium,"Copper, Gold, Nickel, Platinum",Thunder Bay South,Lac Des Iles Area,NAD83,49.176206000000001,-89.602587999999997,https://www.geologyontario.mines.gov.on.ca/persistent-linking?mineral-inventory=MDI000000002136,Intermédiaire
419,MDI42A06SE00065,1001,Deposit,Hart Deposit,"Hart Deposit, Hart Prospect, Paramaque DDH 64-5","Mafic-Ultramafic Intrusion, Magmatic","Copper, Nickel","Gold, Palladium, Platinum",Timmins,Eldorado,NAD83,48.303714999999997,-81.081018000000000,https://www.geologyontario.mines.gov.on.ca/persistent-linking?mineral-inventory=MDI42A06SE00065,Fort
422,MDI41O10NW00040,1004,Occurrence,Kennecott Tn93-01,Kennecott Tn93-01,,Nickel,,Timmins,Greenlaw,NAD83,47.716524000000000,-82.848395999999994,https://www.geologyontario.mines.gov.on.ca/persistent-linking?mineral-inventory=MDI41O10NW00040,Fort
433,MDI000000000345,1004,Occurrence,BHP Minerals DDH 92MDD-04,BHP Minerals DDH 92MDD-04,Komatiite-hosted,Nickel,,Timmins,McArthur,NAD83,48.228572999999997,-81.277922000000004,https://www.geologyontario.mines.gov.on.ca/persistent-linking?mineral-inventory=MDI000000000345,Fort
435,MDI000000001760,1008,Prospect,Swole Lake Cu-Ni,Swole Lake Cu-Ni,,"Copper, Nickel","Palladium, Platinum",Thunder Bay North,Junior Lake Area,NAD83,50.423484000000002,-87.939381999999995,https://www.geologyontario.mines.gov.on.ca/persistent-linking?mineral-inventory=MDI000000001760,Intermédiaire
438,MDI000000001540,1004,Occurrence,Y Vein,"Owiassa Property, Y Vein",,"Copper, Gold, Silver","Cobalt, Nickel, Zinc",Kirkland Lake,Strathy,NAD83,47.143915999999997,-79.781811000000005,https://www.geologyontario.mines.gov.on.ca/persistent-linking?mineral-inventory=MDI000000001540,Fort
443,MDI52C11NE00035,1004,Occurrence,Redgut Bay,"Redgut Bay, Redgut Bay Noranda Option",,Copper,Nickel,Kenora,Halkirk,NAD83,48.741945999999999,-93.019315000000006,https://www.geologyontario.mines.gov.on.ca/persistent-linking?mineral-inventory=MDI52C11NE00035,Modéré
444,MDI52C11NE00047,1004,Occurrence,Belacoma Mines Ltd,"Belacoma Mines Ltd, Belacoma North, Belacoma South, Belacoma West",,"Copper, Nickel","Palladium, Platinum",Kenora,Halkirk,NAD83,48.714855999999997,-93.033782000000002,https://www.geologyontario.mines.gov.on.ca/persistent-linking?mineral-inventory=MDI52C11NE00047,Modéré
446,MDI000000000863,1004,Occurrence,Carlson Property,"Carlson Property, Pegg DDH H-01-01",,"Nickel, Silver",Zinc,Timmins,Halliday,NAD83,47.903317999999999,-81.154065000000003,https://www.geologyontario.mines.gov.on.ca/persistent-linking?mineral-inventory=MDI000000000863,Fort
447,MDI000000001000,1004,Occurrence,Hollinger Mines Ltd Hole TH1-2-72,Hollinger Mines Ltd Hole TH1-2-72,,Nickel,,Timmins,Thorburn,NAD83,48.788513999999999,-81.600095999999994,https://www.geologyontario.mines.gov.on.ca/persistent-linking?mineral-inventory=MDI000000001000,Fort
448,MDI41P14NW00017,1004,Occurrence,Dominion Gulf Block 3,"Dominion Gulf Block 3, Dominion Gulf No. 3 Nickel Showing",,Nickel,,Timmins,Sothman,NAD83,47.897652000000001,-81.273819000000003,https://www.geologyontario.mines.gov.on.ca/persistent-linking?mineral-inventory=MDI41P14NW00017,Fort
449,MDI41I05NE00060,1004,Occurrence,Mustang Minerals Sample 88519,"Keba Property, Mustang Minerals Sample 88519",Mafic-Ultramafic Intrusion,"Cobalt, Copper, Gold, Nickel",Platinum,Sudbury,Nairn,NAD83,46.363348999999999,-81.660055999999997,https://www.geologyontario.mines.gov.on.ca/persistent-linking?mineral-inventory=MDI41I05NE00060,Très fort
455,MDI000000001027,1004,Occurrence,Belacoma West,Belacoma West,,"Copper, Nickel",,Kenora,Halkirk,NAD83,48.721159999999998,-93.041128000000000,https://www.geologyontario.mines.gov.on.ca/persistent-linking?mineral-inventory=MDI000000001027,Modéré
458,MDI41I05SE00026,1004,Occurrence,Golden Sabre Mining Property,Golden Sabre Mining Property,,"Copper, Nickel",,Sudbury,Nairn,NAD83,46.298375000000000,-81.656066999999993,https://www.geologyontario.mines.gov.on.ca/persistent-linking?mineral-inventory=MDI41I05SE00026,Très fort
460,MDI52H13NE00017,1003,Discretionary Occurrence,Puddy South,Puddy South,Mafic-Ultramafic Intrusion,"Iron, Nickel",,Thunder Bay South,Puddy Lake Area,NAD83,49.965350000000001,-89.538642999999993,https://www.geologyontario.mines.gov.on.ca/persistent-linking?mineral-inventory=MDI52H13NE00017,Intermédiaire
463,MDI42A10NW00036,1004,Occurrence,Asarco OVDH AQ-04,Asarco OVDH AQ-04,,Nickel,,Timmins,Macklem,NAD83,48.529308000000000,-80.882039000000006,https://www.geologyontario.mines.gov.on.ca/persistent-linking?mineral-inventory=MDI42A10NW00036,Fort
473,MDI52F05NE00064,1004,Occurrence,Denmark Lake North,"Denmark Lake North, The International Nickel Company of Canada Limited",,Nickel,,Kenora,Atikwa Lake Area,NAD83,49.386701000000002,-93.646715999999998,https://www.geologyontario.mines.gov.on.ca/persistent-linking?mineral-inventory=MDI52F05NE00064,Modéré
474,MDI52F05NE00055,1004,Occurrence,Denmark Lake,Denmark Lake,,"Copper, Nickel",,Kenora,Atikwa Lake Area,NAD83,49.391126000000000,-93.661851999999996,https://www.geologyontario.mines.gov.on.ca/persistent-linking?mineral-inventory=MDI52F05NE00055,Modéré
475,MDI52F05NE00066,1004,Occurrence,Denmark Island,Denmark Island,,Nickel,,Kenora,Atikwa Lake Area,NAD83,49.385446999999999,-93.655407999999994,https://www.geologyontario.mines.gov.on.ca/persistent-linking?mineral-inventory=MDI52F05NE00066,Modéré
477,MDI52F05NE00045,1008,Prospect,Gauthier-Nilson,"Caribou Lake Lodge, Gauthier-Nilson",,"Cobalt, Copper, Nickel, Platinum",,Kenora,Atikwa Lake Area,NAD83,49.388069999999999,-93.666027000000000,https://www.geologyontario.mines.gov.on.ca/persistent-linking?mineral-inventory=MDI52F05NE00045,Modéré
483,MDI42M14NW00008,1001,Deposit,Norton Lake Cu-Ni-PGE Deposit,"Norton Lake Cu-Ni-PGE Deposit, Norton West, Wasabi Resources Cu-Ni Deposit Anomaly U",Mafic-Ultramafic Intrusion,"Copper, Nickel, Palladium, Platinum","Cobalt, Silver",Thunder Bay North,Norton Lake Area,NAD83,51.900742000000001,-87.422777999999994,https://www.geologyontario.mines.gov.on.ca/persistent-linking?mineral-inventory=MDI42M14NW00008,Intermédiaire
486,MDI31F06NE00013,1004,Occurrence,OGS Sample T-227,"McDonalds Mountain, OGS Sample T-227",,Gold,"Copper, Nickel, Zinc",Southern Ontario,Sebastopol,NAD83,45.412184000000003,-77.200582999999995,https://www.geologyontario.mines.gov.on.ca/persistent-linking?mineral-inventory=MDI31F06NE00013,Faible
492,MDI52P02NW00005,1008,Prospect,Gould Lake,"Gould Lake, Govenor Gold Mines Occurrence, McWami Lake Occurrence, Miron Occurrence",Mafic-Ultramafic Intrusion,Copper,"Lead, Nickel, Zinc",Thunder Bay North,Ficht Lake Area,NAD83,51.188946999999999,-88.893084999999999,https://www.geologyontario.mines.gov.on.ca/persistent-linking?mineral-inventory=MDI52P02NW00005,Intermédiaire
493,MDI31M05SE00112,1003,Discretionary Occurrence,Watts-Armstrong,Watts-Armstrong,Vein (Cobalt-Type),"Cobalt, Nickel",,Kirkland Lake,Gillies Limit,NAD83,47.306075999999997,-79.693824000000006,https://www.geologyontario.mines.gov.on.ca/persistent-linking?mineral-inventory=MDI31M05SE00112,Fort
496,MDI000000000962,1004,Occurrence,North Rankin Nickel DDH 65-7,"North Rankin Nickel DDH 65-7, North Rankin Nickel DDH 65-8",,Nickel,Copper,Timmins,MacDiarmid,NAD83,48.683748000000001,-81.578498999999994,https://www.geologyontario.mines.gov.on.ca/persistent-linking?mineral-inventory=MDI000000000962,Fort
499,MDI42C02SE00029,1003,Discretionary Occurrence,Lakemount A Vein,Lakemount A Vein,,"Copper, Nickel",,Sault Ste. Marie,Esquega,NAD83,48.044764999999998,-84.631861000000001,https://www.geologyontario.mines.gov.on.ca/persistent-linking?mineral-inventory=MDI42C02SE00029,Faible
503,MDI000000001028,1008,Prospect,East Zone,East Zone,,"Cobalt, Copper, Gold, Nickel, Palladium, Platinum","Molybdenum, Silver",Kenora,Halkirk,NAD83,48.705638000000000,-93.050590000000000,https://www.geologyontario.mines.gov.on.ca/persistent-linking?mineral-inventory=MDI000000001028,Modéré
504,MDI000000001031,1004,Occurrence,Highway 1,Highway 1,,"Copper, Nickel",,Kenora,Halkirk,NAD83,48.716932999999997,-93.037154999999998,https://www.geologyontario.mines.gov.on.ca/persistent-linking?mineral-inventory=MDI000000001031,Modéré
505,MDI000000001033,1008,Prospect,Main South Zone,Main South Zone,,"Copper, Nickel","Cobalt, Palladium, Platinum, Silver",Kenora,Halkirk,NAD83,48.700819000000003,-93.062110000000004,https://www.geologyontario.mines.gov.on.ca/persistent-linking?mineral-inventory=MDI000000001033,Modéré
510,MDI000000001068,1004,Occurrence,International Nickel Company of Canada Ltd 27090,"International Nickel Company of Canada Ltd 25064, International Nickel Company of Canada Ltd 27090",,Nickel,,Timmins,Kingsmill,NAD83,48.960008000000002,-81.616221999999993,https://www.geologyontario.mines.gov.on.ca/persistent-linking?mineral-inventory=MDI000000001068,Fort
517,MDI31M13SE00008,1004,Occurrence,Golden Poly Property,"Gereghty and Waddell Property, Golden Poly Property, Tyranex Property",,"Copper, Nickel, Zinc","Gold, Silver",Kirkland Lake,Pense,NAD83,47.814946999999997,-79.541832999999997,https://www.geologyontario.mines.gov.on.ca/persistent-linking?mineral-inventory=MDI31M13SE00008,Fort
522,MDI53C05NE00003,1004,Occurrence,Asbestos Corp Discovery No. 2,"Asbestos Corp Discovery No. 2, Findlay Lake Deposits, Hornby Lake, Partridge Showing",Mafic-Ultramafic Intrusion,"Copper, Nickel",,Red Lake,Hornby Lake Area,NAD83,52.460607000000003,-93.585194000000001,https://www.geologyontario.mines.gov.on.ca/persistent-linking?mineral-inventory=MDI53C05NE00003,Modéré
523,MDI41I16SW00034,1004,Occurrence,Palston,"McNish, Ozhway, Palston, Waltenbury",Vein,"Cobalt, Copper, Lead, Nickel, Zinc","Gold, Silver",Sudbury,McNish,NAD83,46.798025000000003,-80.407833999999994,https://www.geologyontario.mines.gov.on.ca/persistent-linking?mineral-inventory=MDI41I16SW00034,Très fort
524,MDI41P10NW00033,1004,Occurrence,Rawhide,Rawhide,,Silver,"Cobalt, Copper, Nickel",Kirkland Lake,Haultain,NAD83,47.707856000000000,-80.686758999999995,https://www.geologyontario.mines.gov.on.ca/persistent-linking?mineral-inventory=MDI41P10NW00033,Fort
526,MDI52P04NE00012,1004,Occurrence,Hummingbird Lake,"Achapi Lake 'A', Hummingbird Lake, Sturdy Mines, Woodilee Lake",Mafic-Ultramafic Intrusion,"Copper, Nickel","Cobalt, Gold",Thunder Bay North,Achapi Lake Area,NAD83,51.128546000000000,-89.748755000000003,https://www.geologyontario.mines.gov.on.ca/persistent-linking?mineral-inventory=MDI52P04NE00012,Intermédiaire
527,MDI000000000217,1004,Occurrence,Ontex Sample 65420,Ontex Sample 65420,,Nickel,,Timmins,Deloro,NAD83,48.400937999999996,-81.259985999999998,https://www.geologyontario.mines.gov.on.ca/persistent-linking?mineral-inventory=MDI000000000217,Fort
528,MDI000000000222,1004,Occurrence,Ontex Sample 65449,Ontex Sample 65449,,Nickel,,Timmins,Deloro,NAD83,48.390265999999997,-81.256648999999996,https://www.geologyontario.mines.gov.on.ca/persistent-linking?mineral-inventory=MDI000000000222,Fort
529,MDI000000000224,1004,Occurrence,Ontex Sample 65255,Ontex Sample 65255,,Nickel,,Timmins,Deloro,NAD83,48.383428000000002,-81.257154999999997,https://www.geologyontario.mines.gov.on.ca/persistent-linking?mineral-inventory=MDI000000000224,Fort
530,MDI41I05SE00096,1008,Prospect,Prosco No. E14 & E15,Prosco No. E14 & E15,,Copper,"Nickel, Sulphur/Pyrite",Sudbury,Baldwin,NAD83,46.328400999999999,-81.744016999999999,https://www.geologyontario.mines.gov.on.ca/persistent-linking?mineral-inventory=MDI41I05SE00096,Très fort
531,MDI000000000143,1004,Occurrence,Luella Lake Occurrence,Luella Lake Occurrence,Mafic-Ultramafic Intrusion,"Copper, Nickel",,Thunder Bay North,Ficht Lake Area,NAD83,51.202043000000003,-88.780653000000001,https://www.geologyontario.mines.gov.on.ca/persistent-linking?mineral-inventory=MDI000000000143,Intermédiaire
534,MDI000000002357,1004,Occurrence,Kejimalda Zone,"Kejimalda Zone, Moshkinabi Lake Extension, Nose Grid",,"Cobalt, Copper, Nickel, Palladium, Platinum","Gold, Silver",Thunder Bay South,Roberta,NAD83,49.130878000000003,-85.552369999999996,https://www.geologyontario.mines.gov.on.ca/persistent-linking?mineral-inventory=MDI000000002357,Intermédiaire
536,MDI52A03SW00011,1004,Occurrence,Renshaw-Kuneman,Renshaw-Kuneman,,"Copper, Nickel, Palladium",Gold,Thunder Bay South,Spar And Victoria Islands Area,NAD83,48.092390999999999,-89.323824999999999,https://www.geologyontario.mines.gov.on.ca/persistent-linking?mineral-inventory=MDI52A03SW00011,Intermédiaire
539,MDI42A08SE00114,1004,Occurrence,Ole Hagen Property,"Ole Hagen Property, P. Hawley Property",,Asbestos,"Copper, Nickel",Kirkland Lake,Benoit,NAD83,48.310862000000000,-80.258328000000006,https://www.geologyontario.mines.gov.on.ca/persistent-linking?mineral-inventory=MDI42A08SE00114,Fort
542,MDI42C16NW00004,1001,Deposit,Kabinakagami Lake Occurrence,"Boot Bay Magnetite, J. Perkin Property, Kabinakagami Lake Occurrence, Sand River Gold Mining",Mafic-Ultramafic Intrusion,"Chromium, Iron, Titanium, Vanadium","Gold, Nickel",Timmins,Lizar,NAD83,48.899368000000003,-84.474872000000005,https://www.geologyontario.mines.gov.on.ca/persistent-linking?mineral-inventory=MDI42C16NW00004,Fort
543,MDI41I06NE00011,1005,Past Producing Mine,Copper Cliff No. 2,"Canadian Copper No. 2, Copper Cliff No. 2, McArthur No. 2",,"Copper, Nickel",,Sudbury,McKim,NAD83,46.482028999999997,-81.066861000000003,https://www.geologyontario.mines.gov.on.ca/persistent-linking?mineral-inventory=MDI41I06NE00011,Très fort
545,MDI000000004739,1001,Deposit,Aurora North,"Aurora Nickel Project, Aurora North, Langmuir North",Komatiite-hosted,Nickel,"Copper, Gold, Palladium, Platinum",Timmins,Langmuir,NAD83,48.344112000000003,-80.997975999999994,https://www.geologyontario.mines.gov.on.ca/persistent-linking?mineral-inventory=MDI000000004739,Fort
546,MDI000000002255,1003,Discretionary Occurrence,Coomer Lake North,"Coomer Lake North, Northern Shield DDH 06HB-10",,"Nickel, Platinum, Vanadium","Magnetite, Palladium",Thunder Bay North,BMA 524 861,NAD83,52.450209999999998,-86.237763000000001,https://www.geologyontario.mines.gov.on.ca/persistent-linking?mineral-inventory=MDI000000002255,Intermédiaire
550,MDI31C13NE00106,1003,Discretionary Occurrence,Wilroy,Wilroy,,"Copper, Nickel",,Southern Ontario,Limerick,NAD83,44.909897999999998,-77.684094999999999,https://www.geologyontario.mines.gov.on.ca/persistent-linking?mineral-inventory=MDI31C13NE00106,Faible
552,MDI31E05SW00015,1003,Discretionary Occurrence,Lot 15 Concession 4,Lot 15 Concession 4,,"Copper, Nickel",,Sudbury,Foley,NAD83,45.286166000000001,-79.918019999999999,https://www.geologyontario.mines.gov.on.ca/persistent-linking?mineral-inventory=MDI31E05SW00015,Très fort
553,MDI42A12NE00037,1004,Occurrence,Hollinger Mines Ltd DDH M3-1-73,Hollinger Mines Ltd DDH M3-1-73,,Nickel,,Timmins,MacDiarmid,NAD83,48.674441000000002,-81.544568999999996,https://www.geologyontario.mines.gov.on.ca/persistent-linking?mineral-inventory=MDI42A12NE00037,Fort
555,MDI31E12NW00005,1003,Discretionary Occurrence,Sample 86DGM-29-32,Sample 86DGM-29-32,,"Copper, Manganese, Vanadium","Cobalt, Nickel",Sudbury,Ferrie,NAD83,45.698296999999997,-79.860915000000006,https://www.geologyontario.mines.gov.on.ca/persistent-linking?mineral-inventory=MDI31E12NW00005,Très fort
556,MDI52F11SW00025,1003,Discretionary Occurrence,Waterbug,Waterbug,,"Copper, Nickel",,Kenora,Line Lake Area,NAD83,49.568632000000001,-93.384341000000006,https://www.geologyontario.mines.gov.on.ca/persistent-linking?mineral-inventory=MDI52F11SW00025,Modéré
557,MDI52F11SW00033,1004,Occurrence,Boylen South,Boylen South,,"Copper, Nickel",,Kenora,Line Lake Area,NAD83,49.585898000000000,-93.339388000000000,https://www.geologyontario.mines.gov.on.ca/persistent-linking?mineral-inventory=MDI52F11SW00033,Modéré
558,MDI31M05SE00117,1008,Prospect,Oxford Cobalt Silver Mines Ltd.,"Oxford Cobalt Silver Mines Ltd., Professor Silver Mines Ltd., South Giroux Mines Ltd.",,Silver,"Cobalt, Copper, Lead, Nickel, Zinc",Kirkland Lake,Gillies Limit,NAD83,47.356169000000001,-79.670936999999995,https://www.geologyontario.mines.gov.on.ca/persistent-linking?mineral-inventory=MDI31M05SE00117,Fort
562,MDI52F11SW00024,1004,Occurrence,Boylen,"Boylen, Boylen North, Boylen South",,"Copper, Nickel",,Kenora,Line Lake Area,NAD83,49.596404999999997,-93.326564000000005,https://www.geologyontario.mines.gov.on.ca/persistent-linking?mineral-inventory=MDI52F11SW00024,Modéré
563,MDI000000002082,1003,Discretionary Occurrence,Mongus Lake North,Mongus Lake North,,Nickel,,Kenora,Dogpaw Lake Area,NAD83,49.252853000000002,-93.779263999999998,https://www.geologyontario.mines.gov.on.ca/persistent-linking?mineral-inventory=MDI000000002082,Modéré
572,MDI52O11SW00037,1004,Occurrence,East Bay Property - Hoey Syndicate,"East Bay Property - Hoey Syndicate, Hoey Syndicate Occurrence, McVicar Lake 5",Mafic-Ultramafic Intrusion,"Copper, Nickel","Palladium, Platinum",Thunder Bay North,McVicar Lake Area,NAD83,51.566690000000001,-91.415279999999996,https://www.geologyontario.mines.gov.on.ca/persistent-linking?mineral-inventory=MDI52O11SW00037,Intermédiaire
573,MDI41I05NE00047,1004,Occurrence,Trillabelle,"Gillespie, Trillabelle",,"Copper, Nickel","Cobalt, Gold, Platinum, Selenium, Silver, Tellurium",Sudbury,Trill,NAD83,46.493991999999999,-81.533410000000003,https://www.geologyontario.mines.gov.on.ca/persistent-linking?mineral-inventory=MDI41I05NE00047,Très fort
574,MDI31C10NW00244,1004,Occurrence,Wm. McKnight,Wm. McKnight,,Nickel,Gold,Southern Ontario,Olden,NAD83,44.719943000000001,-76.816254000000001,https://www.geologyontario.mines.gov.on.ca/persistent-linking?mineral-inventory=MDI31C10NW00244,Faible
576,MDI31M05NE00039,1009,Past Producing Mine (Low Tonnage),"Kingsbury Silverware, Clark Donaldson","Dolmac Mines Ltd., Kingsbury Silverware, Clark Donaldson, Mining Corporation of Canada Ltd. (option), Rockzone Mines Ltd., Smith Cobalt Mines Ltd.",,Cobalt,"Copper, Nickel, Silver",Kirkland Lake,Coleman,NAD83,47.390669000000003,-79.638731000000007,https://www.geologyontario.mines.gov.on.ca/persistent-linking?mineral-inventory=MDI31M05NE00039,Fort
579,MDI31M05NE00037,1005,Past Producing Mine,King Edward Mining Company,"King Cobalt, King Edward Mining Company, National Mines Ltd., Rix Athabasca Uranium Mines Ltd., Silver Century, Silver Cliff Mine, United Cobalt Mines Ltd., Watts, York Ontario Silver Mines Ltd.",Vein (Cobalt-Type),"Cobalt, Silver","Copper, Lead, Nickel",Kirkland Lake,Coleman,NAD83,47.391303999999998,-79.654757000000004,https://www.geologyontario.mines.gov.on.ca/persistent-linking?mineral-inventory=MDI31M05NE00037,Fort
581,MDI31M05NE00204,1004,Occurrence,Michigan,Michigan,,Silver,"Cobalt, Nickel",Kirkland Lake,Coleman,NAD83,47.381464999999999,-79.661743000000001,https://www.geologyontario.mines.gov.on.ca/persistent-linking?mineral-inventory=MDI31M05NE00204,Fort
592,MDI41I14SE00004,1005,Past Producing Mine,Nickel Offsets Mine,"Mining Location WD250, Mining Location WR 5 Nickel-Copper-Sulphide, Nickel Offsets Mine, Ross Mine",Mafic-Ultramafic Intrusion,"Copper, Gold, Nickel, Palladium, Platinum",,Sudbury,Foy,NAD83,46.758603999999998,-81.239474000000001,https://www.geologyontario.mines.gov.on.ca/persistent-linking?mineral-inventory=MDI41I14SE00004,Très fort
598,MDI000000000180,1004,Occurrence,Ontex Sample 65265,Ontex Sample 65265,,Nickel,,Timmins,Deloro,NAD83,48.411937999999999,-81.261217000000002,https://www.geologyontario.mines.gov.on.ca/persistent-linking?mineral-inventory=MDI000000000180,Fort
599,MDI31C14SW00055,1003,Discretionary Occurrence,Anomaly 1068,Anomaly 1068,,"Chromium, Nickel",,Southern Ontario,Anglesea,NAD83,44.846133999999999,-77.305226000000005,https://www.geologyontario.mines.gov.on.ca/persistent-linking?mineral-inventory=MDI31C14SW00055,Faible
600,MDI41I10NE00083,1004,Occurrence,New Arcadia,New Arcadia,"Mafic-Ultramafic Intrusion, Vein (Polymetallic)","Copper, Gold, Nickel","Palladium, Platinum, Sulphur/Pyrite",Sudbury,Scadding,NAD83,46.628971000000000,-80.599960999999993,https://www.geologyontario.mines.gov.on.ca/persistent-linking?mineral-inventory=MDI41I10NE00083,Très fort
601,MDI42A06NW00191,1004,Occurrence,O'Shea Shear Zone,"O'Shea Shear Zone, Ontex Resources DDH Fy-02-08",,"Gold, Nickel",,Timmins,Deloro,NAD83,48.408544999999997,-81.257912000000005,https://www.geologyontario.mines.gov.on.ca/persistent-linking?mineral-inventory=MDI42A06NW00191,Fort
603,MDI31C13SE00099,1001,Deposit,Macassa,Macassa,,"Copper, Nickel","Cobalt, Gold, Silver, Zinc",Southern Ontario,Limerick,NAD83,44.868001000000000,-77.722539999999995,https://www.geologyontario.mines.gov.on.ca/persistent-linking?mineral-inventory=MDI31C13SE00099,Faible
604,MDI52I11SE00004,1003,Discretionary Occurrence,Fletcher Lake West,"Fletcher Lake Occurrence, Fletcher Lake West",,"Copper, Nickel",,Thunder Bay North,Caribou River Area,NAD83,50.562770999999998,-89.005436000000003,https://www.geologyontario.mines.gov.on.ca/persistent-linking?mineral-inventory=MDI52I11SE00004,Intermédiaire
607,MDI41K09NE00082,1004,Occurrence,McCauley,McCauley,,Iron,"Nickel, Titanium",Sault Ste. Marie,Jarvis,NAD83,46.674840000000003,-84.222684999999998,https://www.geologyontario.mines.gov.on.ca/persistent-linking?mineral-inventory=MDI41K09NE00082,Faible
610,MDI41P09NW00010,1009,Past Producing Mine (Low Tonnage),B.L. Morrison,"B.L. Morrison, G.S. Welsh, Otisse",,Silver,"Cobalt, Nickel",Kirkland Lake,Mickle,NAD83,47.725067000000003,-80.442052000000004,https://www.geologyontario.mines.gov.on.ca/persistent-linking?mineral-inventory=MDI41P09NW00010,Fort
611,MDI52F11SW00032,1004,Occurrence,Boylen North,Boylen North,,Copper,Nickel,Kenora,Line Lake Area,NAD83,49.598593000000001,-93.328930999999997,https://www.geologyontario.mines.gov.on.ca/persistent-linking?mineral-inventory=MDI52F11SW00032,Modéré
614,MDI41I11NW00009,1005,Past Producing Mine,Hardy Mine,Hardy Mine,,"Copper, Nickel","Cobalt, Gold, Iridium, Iron, Palladium, Platinum, Rhodium, Ruthenium, Selenium, Silver",Sudbury,Levack,NAD83,46.631028999999998,-81.399873999999997,https://www.geologyontario.mines.gov.on.ca/persistent-linking?mineral-inventory=MDI41I11NW00009,Très fort
619,MDI41I10SW00010,1005,Past Producing Mine,Blezard,Blezard,,"Copper, Nickel","Cobalt, Gold, Palladium, Platinum",Sudbury,Blezard,NAD83,46.557032000000000,-80.977862000000002,https://www.geologyontario.mines.gov.on.ca/persistent-linking?mineral-inventory=MDI41I10SW00010,Très fort
621,MDI41I10NE00078,1004,Occurrence,West Side Outlet Bay,West Side Outlet Bay,,"Copper, Nickel, Sulphur/Pyrite",,Sudbury,Scadding,NAD83,46.668021000000003,-80.674672999999999,https://www.geologyontario.mines.gov.on.ca/persistent-linking?mineral-inventory=MDI41I10NE00078,Très fort
624,MDI41J08NE00005,1003,Discretionary Occurrence,Moon Lake,Moon Lake,,"Copper, Nickel",,Sudbury,Gerow,NAD83,46.420791999999999,-82.221588999999994,https://www.geologyontario.mines.gov.on.ca/persistent-linking?mineral-inventory=MDI41J08NE00005,Très fort
626,MDI000000002258,1004,Occurrence,Pulpwood Harbour West,Pulpwood Harbour West,,Zinc,"Copper, Nickel",Thunder Bay South,Mussy Lake Area,NAD83,48.585227000000003,-86.290581000000003,https://www.geologyontario.mines.gov.on.ca/persistent-linking?mineral-inventory=MDI000000002258,Intermédiaire
630,MDI41P10NE00065,1008,Prospect,Powerful,"Lake Superior Resources Corp., Powerful",,Silver,"Cobalt, Nickel",Kirkland Lake,Lawson,NAD83,47.634109000000002,-80.651897000000005,https://www.geologyontario.mines.gov.on.ca/persistent-linking?mineral-inventory=MDI41P10NE00065,Fort
631,MDI31M05SE00118,1008,Prospect,Oxford Cobalt Silver Mines Ltd.,"Consolidated Professor Mines Ltd., Oxford Cobalt Silver Mines Ltd., Professor Silver Mines Ltd., South Giroux Mines Ltd.",,Silver,"Cobalt, Copper, Lead, Nickel, Zinc",Kirkland Lake,Gillies Limit,NAD83,47.360058000000002,-79.664839999999998,https://www.geologyontario.mines.gov.on.ca/persistent-linking?mineral-inventory=MDI31M05SE00118,Fort
632,MDI52H04NW00003,1004,Occurrence,Laurion Lake,"Kuhner Tib Lake, Laurion Lake",,"Copper, Nickel, Palladium, Platinum",Gold,Thunder Bay South,Tib Lake Area,NAD83,49.234361000000000,-89.794207999999998,https://www.geologyontario.mines.gov.on.ca/persistent-linking?mineral-inventory=MDI52H04NW00003,Intermédiaire
633,MDI41I10SW00020,1007,Producing Mine,Stobie Mine,Stobie Mine,,"Copper, Nickel","Cobalt, Gold, Palladium, Platinum",Sudbury,Blezard,NAD83,46.540385000000001,-80.993493000000001,https://www.geologyontario.mines.gov.on.ca/persistent-linking?mineral-inventory=MDI41I10SW00020,Très fort
635,MDI41P10NE00053,1004,Occurrence,Wigwam Lake,"Tormont Mines, Wigwam Lake",,Copper,"Cobalt, Nickel, Silver",Kirkland Lake,Haultain,NAD83,47.692323000000002,-80.666329000000005,https://www.geologyontario.mines.gov.on.ca/persistent-linking?mineral-inventory=MDI41P10NE00053,Fort
637,MDI42A03SE00032,1004,Occurrence,Moss-Tremblay,"Moss-Tremblay, Southern Cross",,Nickel,,Timmins,Zavitz,NAD83,48.021585999999999,-81.085725999999994,https://www.geologyontario.mines.gov.on.ca/persistent-linking?mineral-inventory=MDI42A03SE00032,Fort
644,MDI52G03SE00003,1003,Discretionary Occurrence,Nicuso,Nicuso,,"Copper, Nickel",,Thunder Bay South,Richardson Lake Area,NAD83,49.059719000000001,-91.177381999999994,https://www.geologyontario.mines.gov.on.ca/persistent-linking?mineral-inventory=MDI52G03SE00003,Intermédiaire
647,MDI41I06NW00086,1004,Occurrence,Century Mine,Century Mine,Mafic-Ultramafic Intrusion,Nickel,"Cobalt, Copper",Sudbury,Graham,NAD83,46.419220000000003,-81.218503999999996,https://www.geologyontario.mines.gov.on.ca/persistent-linking?mineral-inventory=MDI41I06NW00086,Très fort
648,MDI41I06NE00086,1004,Occurrence,"Lots 1, 2, 3, Con 4","Lots 1, 2, 3, Con 4",,"Copper, Nickel",,Sudbury,Graham,NAD83,46.412365999999999,-81.206688000000000,https://www.geologyontario.mines.gov.on.ca/persistent-linking?mineral-inventory=MDI41I06NE00086,Très fort
649,MDI41I06NE00083,1004,Occurrence,"Lot 2, Con 4","Lot 2, Con 4",,Nickel,,Sudbury,Graham,NAD83,46.422130000000003,-81.196939000000000,https://www.geologyontario.mines.gov.on.ca/persistent-linking?mineral-inventory=MDI41I06NE00083,Très fort
650,MDI42A02SW00039,1004,Occurrence,Argyle - 1,Argyle - 1,,Nickel,,Kirkland Lake,Argyle,NAD83,48.029806000000001,-80.818498000000005,https://www.geologyontario.mines.gov.on.ca/persistent-linking?mineral-inventory=MDI42A02SW00039,Fort
653,MDI000000000483,1004,Occurrence,Great Plains DDH 72-C-16,Great Plains DDH 72-C-16,,Nickel,,Thunder Bay North,Bugbee Lake Area,NAD83,52.215547000000001,-90.482246000000004,https://www.geologyontario.mines.gov.on.ca/persistent-linking?mineral-inventory=MDI000000000483,Intermédiaire
662,MDI42A10NW00002,1001,Deposit,Alexo Mine,"Alexo Deposit, Alexo Mine, Alexo North, Harlin Nickel",Komatiite-hosted,"Copper, Nickel, Palladium, Platinum",Cobalt,Timmins,Dundonald,NAD83,48.657988000000003,-80.812539000000001,https://www.geologyontario.mines.gov.on.ca/persistent-linking?mineral-inventory=MDI42A10NW00002,Fort
663,MDI000000002139,1001,Deposit,North VT Rim,North VT Rim,Mafic-Ultramafic Intrusion,Palladium,"Copper, Gold, Nickel, Platinum",Thunder Bay South,Lac Des Iles Area,NAD83,49.177604000000002,-89.607999000000007,https://www.geologyontario.mines.gov.on.ca/persistent-linking?mineral-inventory=MDI000000002139,Intermédiaire
664,MDI000000004279,1001,Deposit,Reid Nickel,Reid Nickel,"Komatiite-hosted, Mafic-Ultramafic Intrusion",Nickel,"Chromium, Cobalt, Iron, Palladium, Platinum",Timmins,Reid,NAD83,48.791578999999999,-81.580692999999997,https://www.geologyontario.mines.gov.on.ca/persistent-linking?mineral-inventory=MDI000000004279,Fort
665,MDI000000002167,1004,Occurrence,Wall Zone,"Jm-99-0776, Wall Zone",,"Palladium, Platinum","Copper, Nickel",Thunder Bay South,Lac Des Iles Area,NAD83,49.227615999999998,-89.584821000000005,https://www.geologyontario.mines.gov.on.ca/persistent-linking?mineral-inventory=MDI000000002167,Intermédiaire
666,MDI000000002165,1004,Occurrence,T400W Occurrence,"T-99-400-426, T400W Occurrence",Mafic-Ultramafic Intrusion,Palladium,"Copper, Nickel",Thunder Bay South,Lac Des Iles Area,NAD83,49.220013999999999,-89.586827999999997,https://www.geologyontario.mines.gov.on.ca/persistent-linking?mineral-inventory=MDI000000002165,Intermédiaire
667,MDI000000002164,1004,Occurrence,Peninsula,Peninsula,Mafic-Ultramafic Intrusion,"Palladium, Platinum","Copper, Gold, Nickel",Thunder Bay South,Lac Des Iles Area,NAD83,49.224471999999999,-89.596635000000006,https://www.geologyontario.mines.gov.on.ca/persistent-linking?mineral-inventory=MDI000000002164,Intermédiaire
669,MDI31M04SE00024,1004,Occurrence,Temagami-Lorrain,Temagami-Lorrain,,"Cobalt, Gold","Arsenic, Copper, Nickel, Silver",Kirkland Lake,Cassels,NAD83,47.111055000000000,-79.682837000000006,https://www.geologyontario.mines.gov.on.ca/persistent-linking?mineral-inventory=MDI31M04SE00024,Fort
674,MDI000000000793,1004,Occurrence,Argyle -2,Argyle -2,,Nickel,,Kirkland Lake,Argyle,NAD83,48.028413000000000,-80.814606999999995,https://www.geologyontario.mines.gov.on.ca/persistent-linking?mineral-inventory=MDI000000000793,Fort
677,MDI000000000166,1008,Prospect,Pele Mountain DH PM-03-02,"Lalonde-Robitaille Property, Pele Mountain DH PM-03-02, Texmont Extension Property",Komatiite-hosted,"Gold, Nickel",Copper,Timmins,Geikie,NAD83,48.156748999999998,-81.201239000000001,https://www.geologyontario.mines.gov.on.ca/persistent-linking?mineral-inventory=MDI000000000166,Fort
682,MDI42A04NW00025,1004,Occurrence,Norduna,"Dunvegan, Hoodoo Lake Mines, Norduna",Magmatic,"Copper, Nickel","Gold, Platinum, Zinc",Timmins,Kenogaming,NAD83,48.151521000000002,-81.934757000000005,https://www.geologyontario.mines.gov.on.ca/persistent-linking?mineral-inventory=MDI42A04NW00025,Fort
683,MDI42A04NW00051,1004,Occurrence,Milne Nickel,Milne Nickel,,Nickel,,Timmins,Kenogaming,NAD83,48.163792999999998,-81.934764999999999,https://www.geologyontario.mines.gov.on.ca/persistent-linking?mineral-inventory=MDI42A04NW00051,Fort
685,MDI42A03NE00028,1004,Occurrence,Texmont DH A-8,"Texmont Block C, Texmont DH A-8",Mafic-Ultramafic Intrusion,Nickel,,Timmins,Geikie,NAD83,48.185184000000000,-81.203597000000002,https://www.geologyontario.mines.gov.on.ca/persistent-linking?mineral-inventory=MDI42A03NE00028,Fort
686,MDI000000000337,1004,Occurrence,Queenston Claim 42728,Queenston Claim 42728,Komatiite-hosted,Nickel,,Timmins,Bartlett,NAD83,48.117279000000003,-81.215823999999998,https://www.geologyontario.mines.gov.on.ca/persistent-linking?mineral-inventory=MDI000000000337,Fort
693,MDI31F04NE00091,1003,Discretionary Occurrence,Mangrove Bay L8W showing,Mangrove Bay L8W showing,Mafic-Ultramafic Intrusion,Chromium,"Copper, Nickel, Platinum",Southern Ontario,Raglan,NAD83,45.212367000000000,-77.490236999999993,https://www.geologyontario.mines.gov.on.ca/persistent-linking?mineral-inventory=MDI31F04NE00091,Faible
694,MDI31F04NE00076,1003,Discretionary Occurrence,Ameranium Showing,"Ameranium Showing, Mangrove Bay L35W Anomaly",Mafic-Ultramafic Intrusion,"Copper, Nickel",Chromium,Southern Ontario,Raglan,NAD83,45.200730000000000,-77.521317999999994,https://www.geologyontario.mines.gov.on.ca/persistent-linking?mineral-inventory=MDI31F04NE00076,Faible
695,MDI41I10SW00059,1004,Occurrence,Malbeuf and Martin,Malbeuf and Martin,,"Copper, Nickel",,Sudbury,Garson,NAD83,46.570886999999999,-80.924966999999995,https://www.geologyontario.mines.gov.on.ca/persistent-linking?mineral-inventory=MDI41I10SW00059,Très fort
697,MDI41I06NW00106,1003,Discretionary Occurrence,McConnell Prospect,"Flett, Lot 11, Con 4, McConnell Prospect",Igneous Contact,"Copper, Nickel",,Sudbury,Denison,NAD83,46.423895000000002,-81.418512000000007,https://www.geologyontario.mines.gov.on.ca/persistent-linking?mineral-inventory=MDI41I06NW00106,Très fort
699,MDI41J01NE00050,1003,Discretionary Occurrence,North Wahsesee Lake,North Wahsesee Lake,,Nickel,"Copper, Sulphur/Pyrite",Sudbury,Salter,NAD83,46.215021999999998,-82.159554999999997,https://www.geologyontario.mines.gov.on.ca/persistent-linking?mineral-inventory=MDI41J01NE00050,Très fort
700,MDI000000001715,1008,Prospect,Seagull,"Nipigon Reefs, Seagull, Wolf Mountain",Mafic-Ultramafic Intrusion,"Copper, Nickel, Palladium, Platinum",Gold,Thunder Bay South,Leckie Lake Area,NAD83,49.026994000000002,-88.956197000000003,https://www.geologyontario.mines.gov.on.ca/persistent-linking?mineral-inventory=MDI000000001715,Intermédiaire
701,MDI41I10SW00048,1004,Occurrence,Dryden North,"Dryden North, L.G. Frank",,Copper,Nickel,Sudbury,Dryden,NAD83,46.532155000000003,-80.784263999999993,https://www.geologyontario.mines.gov.on.ca/persistent-linking?mineral-inventory=MDI41I10SW00048,Très fort
709,MDI53H12SW00003,1004,Occurrence,Beardy Creek,"Beardy Creek, Big Trout Lake",Mafic-Ultramafic Intrusion,"Chromium, Copper, Nickel",,Thunder Bay North,Nemeigusabins Lake Area,NAD83,53.601733000000003,-89.913925000000006,https://www.geologyontario.mines.gov.on.ca/persistent-linking?mineral-inventory=MDI53H12SW00003,Intermédiaire
715,MDI41I05SW00109,1004,Occurrence,Pronto No 7,Pronto No 7,,"Copper, Nickel",,Sudbury,Shakespeare,NAD83,46.280797999999997,-81.921049999999994,https://www.geologyontario.mines.gov.on.ca/persistent-linking?mineral-inventory=MDI41I05SW00109,Très fort
717,MDI000000001915,1004,Occurrence,Frazer Creek,Frazer Creek,,Uranium,Nickel,Thunder Bay South,Purdom,NAD83,49.214812999999999,-88.427010999999993,https://www.geologyontario.mines.gov.on.ca/persistent-linking?mineral-inventory=MDI000000001915,Intermédiaire
719,MDI41P11NE00044,1004,Occurrence,Arthur Lake,"Arthur Lake, KRL Resources Corp/Cross Lake Minerals",,Nickel,"Cobalt, Copper, Gold, Silver, Zinc",Kirkland Lake,Knight,NAD83,47.698067000000002,-81.070888999999994,https://www.geologyontario.mines.gov.on.ca/persistent-linking?mineral-inventory=MDI41P11NE00044,Fort
721,MDI42A06SE00016,1001,Deposit,CarLang A Zone,"CarLang A Zone, Domininon Gulf Group 1, International Nickel DDH 43232-0, Mespi Mines DDH Cl#3",,Nickel,"Asbestos, Cobalt, Iron",Timmins,Carman,NAD83,48.365164000000000,-81.022311000000002,https://www.geologyontario.mines.gov.on.ca/persistent-linking?mineral-inventory=MDI42A06SE00016,Fort
728,MDI42D16NE00009,1004,Occurrence,Violamac West,"Goodchild Prospect, Violamac West",,"Copper, Nickel, Silver",,Thunder Bay South,Cirrus Lake Area,NAD83,48.881438000000003,-86.214946999999995,https://www.geologyontario.mines.gov.on.ca/persistent-linking?mineral-inventory=MDI42D16NE00009,Intermédiaire
730,MDI42B01NE00011,1004,Occurrence,Purdy Mica,"Claim S17557, Cook, Mortson-Robertson, Purdy Mica","Magmatic, Volcanogenic",Copper,Nickel,Timmins,Keith,NAD83,48.138533000000002,-82.228477999999996,https://www.geologyontario.mines.gov.on.ca/persistent-linking?mineral-inventory=MDI42B01NE00011,Fort
734,MDI000000002927,1003,Discretionary Occurrence,Winisk Property,Winisk Property,,"Chromium, Nickel",,Thunder Bay North,BMA 532 871,NAD83,53.242277999999999,-87.033895999999999,https://www.geologyontario.mines.gov.on.ca/persistent-linking?mineral-inventory=MDI000000002927,Intermédiaire
735,MDI000000003178,1001,Deposit,Bannockburn B Zone,Bannockburn B Zone,Komatiite-hosted,Nickel,"Chromium, Cobalt, Iron, Palladium, Platinum, Sulphur/Pyrite",Kirkland Lake,Bannockburn,NAD83,47.976838999999998,-80.909082999999995,https://www.geologyontario.mines.gov.on.ca/persistent-linking?mineral-inventory=MDI000000003178,Fort
740,MDI42A15SW00043,1004,Occurrence,Pekarik DDH No. 1,Pekarik DDH No. 1,,Nickel,Copper,Timmins,Aurora,NAD83,48.818955000000003,-80.778800000000004,https://www.geologyontario.mines.gov.on.ca/persistent-linking?mineral-inventory=MDI42A15SW00043,Fort
741,MDI000000002424,1004,Occurrence,Gulag,Gulag,,"Cobalt, Copper, Nickel, Palladium",Zinc,Red Lake,Mulcahy,NAD83,51.006458000000002,-94.213661999999999,https://www.geologyontario.mines.gov.on.ca/persistent-linking?mineral-inventory=MDI000000002424,Modéré
743,MDI41I10SW00009,1004,Occurrence,Sheppard,"Beatrice, Davis, Shepherd, Sheppard",,"Copper, Nickel",,Sudbury,Blezard,NAD83,46.568029000000003,-80.949867999999995,https://www.geologyontario.mines.gov.on.ca/persistent-linking?mineral-inventory=MDI41I10SW00009,Très fort
744,MDI41I10NE00029,1003,Discretionary Occurrence,Brady,"Brady, Taylor",,"Copper, Nickel",Sulphur/Pyrite,Sudbury,Davis,NAD83,46.684795999999999,-80.536375000000007,https://www.geologyontario.mines.gov.on.ca/persistent-linking?mineral-inventory=MDI41I10NE00029,Très fort
745,MDI41J05NW00036,1004,Occurrence,E. Bye Copper-Cobalt Showing,"E. Bye Copper-Cobalt Showing, Martin Option",Vein,"Cobalt, Nickel",Copper,Sault Ste. Marie,Tarbutt,NAD83,46.383609000000000,-83.977404000000007,https://www.geologyontario.mines.gov.on.ca/persistent-linking?mineral-inventory=MDI41J05NW00036,Faible
754,MDI42A15SW00033,1004,Occurrence,Inco DDH 6235,"Devonshire Property, Inco DDH 6235",,Nickel,Copper,Timmins,McCart,NAD83,48.788879999999999,-80.939311000000004,https://www.geologyontario.mines.gov.on.ca/persistent-linking?mineral-inventory=MDI42A15SW00033,Fort
756,MDI41P14NW00012,1001,Deposit,Boomerang,"Bardwell, Boomerang, Canex Aerial DDH 119-12, Edleston Project, Serpentine Property, Sirola Option",Mafic-Ultramafic Intrusion,Nickel,"Cobalt, Copper, Silver, Zinc",Timmins,Sothman,NAD83,47.884735999999997,-81.297132000000005,https://www.geologyontario.mines.gov.on.ca/persistent-linking?mineral-inventory=MDI41P14NW00012,Fort
759,MDI41I06NE00020,1003,Discretionary Occurrence,McKim M Occurrence,McKim M Occurrence,,"Copper, Nickel",,Sudbury,McKim,NAD83,46.455159999999999,-81.060681000000002,https://www.geologyontario.mines.gov.on.ca/persistent-linking?mineral-inventory=MDI41I06NE00020,Très fort
760,MDI31M05NE00056,1005,Past Producing Mine,Colonial Mining Co. Ltd.,"Agnico Mines Ltd., Cobalt Consolidated Mining Crop. Ltd., Cobalt Products Ltd., Colonial Mining Co. Ltd., Menago Mining Co. Ltd., Silanco Mining and Refining Co. Ltd.",,"Cobalt, Silver","Copper, Lead, Nickel, Zinc",Kirkland Lake,Coleman,NAD83,47.395080000000000,-79.661420000000007,https://www.geologyontario.mines.gov.on.ca/persistent-linking?mineral-inventory=MDI31M05NE00056,Fort
763,MDI000000002374,1004,Occurrence,Pike Lake North,"Briarcourt, Pike Lake North, Scurry-Rainbow",,"Copper, Nickel, Silver",,Kenora,Valora Lake Area,NAD83,49.823079000000000,-91.200681000000003,https://www.geologyontario.mines.gov.on.ca/persistent-linking?mineral-inventory=MDI000000002374,Modéré
768,MDI000000003469,1004,Occurrence,Copper Hill,Copper Hill,,"Copper, Nickel, Palladium, Platinum",Gold,Thunder Bay South,Devon,NAD83,48.064169000000000,-89.740525000000005,https://www.geologyontario.mines.gov.on.ca/persistent-linking?mineral-inventory=MDI000000003469,Intermédiaire
770,MDI42A14SE00028,1008,Prospect,Mann South,"Cunigold Property, Jonsmith A Zone, Mann South, Schultz Property",,"Copper, Nickel, Zinc","Chromium, Gold",Timmins,Mann,NAD83,48.822344999999999,-81.006771000000001,https://www.geologyontario.mines.gov.on.ca/persistent-linking?mineral-inventory=MDI42A14SE00028,Fort
771,MDI41P09NW00029,1004,Occurrence,Mapes-Johnston,"Cameron, Claim Mr423, Claim Rsc79, Lake Superior Resources Corp, Mapes-Johnston, Oliver",,Silver,"Arsenic, Bismuth, Cobalt, Copper, Gold, Nickel",Kirkland Lake,Mickle,NAD83,47.736967999999997,-80.439696999999995,https://www.geologyontario.mines.gov.on.ca/persistent-linking?mineral-inventory=MDI41P09NW00029,Fort
774,MDI42A08NE00200,1004,Occurrence,Hollinger - South,"Hollinger - South, Transaurum",,Nickel,Asbestos,Kirkland Lake,Michaud,NAD83,48.493789000000000,-80.144385999999997,https://www.geologyontario.mines.gov.on.ca/persistent-linking?mineral-inventory=MDI42A08NE00200,Fort
775,MDI000000001166,1008,Prospect,Big Trout Lake,Big Trout Lake,Mafic-Ultramafic Intrusion,"Copper, Nickel, Palladium, Platinum",Gold,Thunder Bay North,Nemeigusabins Lake Area,NAD83,53.554161999999998,-89.872684000000007,https://www.geologyontario.mines.gov.on.ca/persistent-linking?mineral-inventory=MDI000000001166,Intermédiaire
776,MDI000000003107,1004,Occurrence,DDH Elec22-02,"DDH Elec22-02, Electra Nickel Project",,Nickel,Zinc,Thunder Bay South,Adrian,NAD83,48.492638999999997,-89.805899999999994,https://www.geologyontario.mines.gov.on.ca/persistent-linking?mineral-inventory=MDI000000003107,Intermédiaire
780,MDI31F03NW00039,1004,Occurrence,Genricks Lake Deposit,Genricks Lake Deposit,Mafic-Ultramafic Intrusion,Copper,Nickel,Southern Ontario,Raglan,NAD83,45.219394999999999,-77.448322000000005,https://www.geologyontario.mines.gov.on.ca/persistent-linking?mineral-inventory=MDI31F03NW00039,Faible
781,MDI41I09NW00020,1003,Discretionary Occurrence,Hart Lake Sulphide,Hart Lake Sulphide,,"Copper, Nickel",,Sudbury,Davis,NAD83,46.705824999999997,-80.442893999999995,https://www.geologyontario.mines.gov.on.ca/persistent-linking?mineral-inventory=MDI41I09NW00020,Très fort
785,MDI41O10NW00028,1004,Occurrence,Dome DDH 27-3-1,"Dome DDH 27-3-1, Siragusa #29",,Nickel,"Copper, Gold, Zinc",Timmins,Cunningham,NAD83,47.695698000000000,-82.635143999999997,https://www.geologyontario.mines.gov.on.ca/persistent-linking?mineral-inventory=MDI41O10NW00028,Fort
787,MDI41I06NE00013,1005,Past Producing Mine,Gertrude Mine,Gertrude Mine,,"Copper, Nickel","Cobalt, Gold, Palladium, Platinum, Tellurium",Sudbury,Creighton-Davies,NAD83,46.457467999999999,-81.205999000000006,https://www.geologyontario.mines.gov.on.ca/persistent-linking?mineral-inventory=MDI41I06NE00013,Très fort
791,MDI52B09NW00033,1004,Occurrence,Cornell,"Cornell, Harkness",,"Copper, Zinc","Gold, Nickel, Silver",Thunder Bay South,Haines,NAD83,48.662914000000001,-90.378945999999999,https://www.geologyontario.mines.gov.on.ca/persistent-linking?mineral-inventory=MDI52B09NW00033,Intermédiaire
793,MDI42A11NE00046,1004,Occurrence,Desson - 134-1B,Desson - 134-1B,,Nickel,,Timmins,Tully,NAD83,48.732987999999999,-81.097679999999997,https://www.geologyontario.mines.gov.on.ca/persistent-linking?mineral-inventory=MDI42A11NE00046,Fort
794,MDI52N04SW00252,1004,Occurrence,C.F. Pine,"C.F. Pine, Pine Island Group, Pine South",,"Gold, Nickel","Copper, Silver",Red Lake,Fairlie,NAD83,51.035694999999997,-93.954745000000003,https://www.geologyontario.mines.gov.on.ca/persistent-linking?mineral-inventory=MDI52N04SW00252,Modéré
797,MDI41I09NW00050,1004,Occurrence,Vanlith,Vanlith,,Gold,"Copper, Nickel",Sudbury,Davis,NAD83,46.660994000000002,-80.439837999999995,https://www.geologyontario.mines.gov.on.ca/persistent-linking?mineral-inventory=MDI41I09NW00050,Très fort
798,MDI42B09SW00009,1008,Prospect,Teck DDH Mac96-01,"Nova Lobe, Teck DDH MAC97-23, Teck DDH Mac96-01, Teck Montcalm Grid H-West",,Nickel,"Cobalt, Copper",Timmins,Nova,NAD83,48.560248000000001,-82.270758000000001,https://www.geologyontario.mines.gov.on.ca/persistent-linking?mineral-inventory=MDI42B09SW00009,Fort
800,MDI41P10NE00066,1004,Occurrence,D. Zabudsky,"D. Zabudsky, Lost Lake Property",,"Cobalt, Copper, Nickel, Silver",,Kirkland Lake,Haultain,NAD83,47.671973000000001,-80.661527000000007,https://www.geologyontario.mines.gov.on.ca/persistent-linking?mineral-inventory=MDI41P10NE00066,Fort
801,MDI41J08NE00015,1004,Occurrence,Silcross,"Belanger-Ritchie, East Bull Lake No. 1, Silcross","Mafic-Ultramafic Intrusion, Magmatic","Copper, Nickel",,Sudbury,Boon,NAD83,46.426119000000000,-82.165705000000003,https://www.geologyontario.mines.gov.on.ca/persistent-linking?mineral-inventory=MDI41J08NE00015,Très fort
802,MDI41I11SE00006,1005,Past Producing Mine,Copper Cliff Complex Open Pit,"Copper Cliff Complex Open Pit, Murray",,"Copper, Nickel","Cobalt, Gold, Iridium, Iron, Molybdenum, Palladium, Platinum, Rhodium, Selenium, Silver, Sulphur/Pyrite, Tellurium",Sudbury,McKim,NAD83,46.519061000000001,-81.057231999999999,https://www.geologyontario.mines.gov.on.ca/persistent-linking?mineral-inventory=MDI41I11SE00006,Très fort
803,MDI41I11SE00023,1004,Occurrence,Meehan,Meehan,"Igneous Contact, Magmatic","Copper, Nickel",Silver,Sudbury,Blezard,NAD83,46.539020999999998,-81.033871000000005,https://www.geologyontario.mines.gov.on.ca/persistent-linking?mineral-inventory=MDI41I11SE00023,Très fort
804,MDI000000004639,1004,Occurrence,Golden Arm Nickel,Golden Arm Nickel,,Nickel,,Red Lake,Todd,NAD83,51.053680999999997,-94.107071000000005,https://www.geologyontario.mines.gov.on.ca/persistent-linking?mineral-inventory=MDI000000004639,Modéré
806,MDI42A09SE00015,1005,Past Producing Mine,Potter Mine,"Centre Hill Mines Ltd., Harrison Drilling and Exploration Co., Munro Copper Mines Ltd., Patrick Harrison Co. Ltd., Potter Mine","Exhalative, Replacement","Copper, Zinc","Cobalt, Gold, Nickel, Silver",Kirkland Lake,Munro,NAD83,48.599238999999997,-80.211091999999994,https://www.geologyontario.mines.gov.on.ca/persistent-linking?mineral-inventory=MDI42A09SE00015,Fort
808,MDI42A09NE00098,1004,Occurrence,Dyman 2,"Dyman 2, Hedman Mines Ltd.",,Copper,Nickel,Kirkland Lake,Warden,NAD83,48.625919000000003,-80.199584999999999,https://www.geologyontario.mines.gov.on.ca/persistent-linking?mineral-inventory=MDI42A09NE00098,Fort
810,MDI42E02NE00005,1004,Occurrence,Killala Lake Occurrence,"Killala Lake No. 2 Occurrence, Killala Lake Occurrence, Papaver Lake Occurrence",,"Copper, Nickel",Magnetite,Thunder Bay South,Islington Lake Area,NAD83,49.151350000000001,-86.510932999999994,https://www.geologyontario.mines.gov.on.ca/persistent-linking?mineral-inventory=MDI42E02NE00005,Intermédiaire
